title,note,url,lat,lng,_id,google_place_id
Windsor at Dogpatch,,https://www.google.com/maps/place/Windsor+at+Dogpatch/data=!4m2!3m1!1s0x808f7fba5ceb52ef:0x28dfa93c1fe36937,37.7559386,-122.38839969999998,1,ChIJ71LrXLp_j4ARN2njHzyp3yg
370 7th St,,https://www.google.com/maps/place/370+7th+St/data=!4m2!3m1!1s0x808f7e2a01ae4b1b:0x68146be54e8dff09,34.045727899999996,-118.25449849999998,2,EiYzNzAgN3RoIFN0LCBMb3MgQW5nZWxlcywgQ0EgOTAwMTQsIFVTQSIxEi8KFAoSCf1_62m1x8KAEe9FikZSTa4BEPICKhQKEglvV0ejfsfCgBEV2y-fltw7Ew
One Henry Adams Apartments,,https://www.google.com/maps/place/One+Henry+Adams+Apartments/data=!4m2!3m1!1s0x808f7e2d1c7cbd8d:0x79af7806eac65471,37.769118999999996,-122.40341760000001,3,ChIJjb18HC1-j4ARcVTG6gZ4r3k
49 Zoe St,,https://www.google.com/maps/place/49+Zoe+St/data=!4m2!3m1!1s0x8085807f4c38f81d:0xe2aeef3a79d5bd46,37.780060999999996,-122.39606459999999,4,ChIJHfg4TH-AhYARRr3VeTrvruI
SoMa Square Apartments,,https://www.google.com/maps/place/SoMa+Square+Apartments/data=!4m2!3m1!1s0x8085807e9c91004b:0x37a1a61accd4be1f,37.7836046,-122.3976651,5,ChIJSwCRnH6AhYARH77UzBqmoTc
Strata at Mission Bay Apartments,,https://www.google.com/maps/place/Strata+at+Mission+Bay+Apartments/data=!4m2!3m1!1s0x808f7fd06bdff96f:0x58c408730be9c5b9,37.772509299999996,-122.3912148,6,ChIJb_nfa9B_j4ARucXpC3MIxFg
821 Folsom St,,https://www.google.com/maps/place/821+Folsom+St/data=!4m2!3m1!1s0x8085807e1e25dc69:0x45c7df5241434a05,34.045034199999996,-118.18374730000001,7,Eik4MjEgRm9sc29tIFN0LCBMb3MgQW5nZWxlcywgQ0EgOTAwNjMsIFVTQSIxEi8KFAoSCfmeYNv0xcKAEbieL36Zc1mbELUGKhQKEgnTFztO8cXCgBHtid4fm5pLJw
870 Harrison St,,https://www.google.com/maps/place/870+Harrison+St/data=!4m2!3m1!1s0x8085807fd5e2f55f:0xa4cf8361619209bd,33.8835623,-118.1599717,8,ChIJ-UrDVdUy3YARB4IWtQveurQ
855 Brannan St,,https://www.google.com/maps/place/855+Brannan+St/data=!4m2!3m1!1s0x808f7e2b7d6381c7:0xec4be0e417c4ed48,37.7719439,-122.4043322,9,ChIJnRCsgSt-j4AROengygLbZT0
Avalon at Mission Bay,,https://www.google.com/maps/place/Avalon+at+Mission+Bay/data=!4m2!3m1!1s0x808f7fd6dd702f27:0xb55a40a334590773,37.776453,-122.39345039999999,10,ChIJJy9w3dZ_j4ARcwdZNKNAWrU
829 Folsom St,,https://www.google.com/maps/place/829+Folsom+St/data=!4m2!3m1!1s0x80858080a1c30fc1:0x7213603f2ca12df8,34.0450985,-118.1838171,11,Eik4MjkgRm9sc29tIFN0LCBMb3MgQW5nZWxlcywgQ0EgOTAwNjMsIFVTQSIxEi8KFAoSCfmeYNv0xcKAEbieL36Zc1mbEL0GKhQKEgnTFztO8cXCgBHtid4fm5pLJw
Potrero 1010 Apartments,,https://www.google.com/maps/place/Potrero+1010+Apartments/data=!4m2!3m1!1s0x808f7fcc497edea1:0x3656b4c67dae9ee0,37.766644899999996,-122.3976045,12,ChIJod5-Scx_j4AR4J6ufca0VjY
Banyu Mili Resto,traditional seafood restaurant with floor seating ,https://www.google.com/maps/place/Banyu+Mili+Resto/data=!4m2!3m1!1s0x2e7a58168239ab33:0x90db373e98c46e0e,-7.7759095,110.3463541,13,ChIJM6s5ghZYei4RDm7EmD4325A
The House of Raminten,"owned by local tycoon, traditional foods",https://www.google.com/maps/place/The+House+of+Raminten/data=!4m2!3m1!1s0x2e7a5831e4074603:0xbf9157808e91c603,-7.7851826,110.3713911,14,ChIJA0YH5DFYei4RA8aRjoBXkb8
Lupis Mbah Satinem,traditional snacks,https://www.google.com/maps/place/Lupis+Mbah+Satinem/data=!4m2!3m1!1s0x2e7a583bac7a592f:0xba74f7260bd2e1e1,-7.783016099999998,110.3635002,15,ChIJL1l6rDtYei4R4eHSCyb3dLo
Bu Narti Super Spicy Meal,oseng mercon - firecracker stir-fry,https://www.google.com/maps/place/Bu+Narti+Super+Spicy+Meal/data=!4m2!3m1!1s0x2e7a577b7fe84623:0xbdcb4d1099f1050,-7.801300500000001,110.3574346,16,ChIJI0bof3tXei4RUBCfCdG03As
Ronde Kauman Mbah Payem,wedang ronde - warm ginger drink with peanut-filled balls of glutinous rice,https://www.google.com/maps/place/Ronde+Kauman+Mbah+Payem/data=!4m2!3m1!1s0x2e7a578e7854e65b:0xe645fa21129253c8,-7.8044373,110.36096719999999,17,ChIJW-ZUeI5Xei4RyFOSEiH6ReY
Lumpia Samijaya,lumpia,https://www.google.com/maps/place/Lumpia+Samijaya/data=!4m2!3m1!1s0x2e7a582830d86139:0xe9f277b05950ed89,-7.7943067,110.3657468,18,ChIJwb5-widYei4R_XSVNtjX7zc
Angkringan Kopi Jos Lik Man,charcoal coffee,https://www.google.com/maps/place/Angkringan+Kopi+Jos+Lik+Man/data=!4m2!3m1!1s0x2e7a58258545add9:0x92ce1fde42439ef9,-7.782273399999999,110.3653327,19,ChIJ2a1FhSVYei4R-Z5DQt4fzpI
Bale Raos - The Sultan's Dishes,,https://www.google.com/maps/place/Bale+Raos+-+The+Sultan's+Dishes/data=!4m2!3m1!1s0x2e7a578d61c24d1f:0x49bde399ebde344c,-7.808708,110.36258699999999,20,ChIJH03CYY1Xei4RTDTe65njvUk
Space Coffee Roastery,,https://www.google.com/maps/place/Space+Coffee+Roastery/data=!4m2!3m1!1s0x2e7a584335baa0b5:0x92012d15e3dd6d9f,-7.7660474,110.3606993,21,ChIJtaC6NUNYei4Rn23d4xUtAZI
Warung Kopi Klotok,"traditional Indonesian coffee, fried banana",https://www.google.com/maps/place/Warung+Kopi+Klotok/data=!4m2!3m1!1s0x2e7a5e80a3df1d61:0x3c02536343f1185c,-7.6703429000000005,110.4213061,22,ChIJYR3fo4Beei4RXBjxQ2NTAjw
Ramayana Ballet Prambanan,nightly shows,https://www.google.com/maps/place/Ramayana+Ballet+Prambanan/data=!4m2!3m1!1s0x2e7a5ae3091a1081:0x42d3e57612b8cf42,-7.7530267,110.4884829,23,ChIJgRAaCeNaei4RQs-4Enbl00I
Bukit Rhema Gereja Ayam,chicken church,https://www.google.com/maps/place/Bukit+Rhema+Gereja+Ayam/data=!4m2!3m1!1s0x2e7a8d0411951787:0x24751ba0cf5dde6b,-7.605709300000001,110.18048399999999,24,ChIJhxeVEQSNei4Ra95dz6AbdSQ
Jomblang Cave,,https://www.google.com/maps/place/Jomblang+Cave/data=!4m2!3m1!1s0x2e7bb41fce34d717:0xf9ffcb6f9fbd5cce,-8.0281562,110.6383307,25,ChIJF9c0zh-0ey4Rzly9n2_L__k
Kebun Teh Nglinggo,tea plantation ,https://www.google.com/maps/place/Kebun+Teh+Nglinggo/data=!4m2!3m1!1s0x2e7af2aa21b914df:0x99633b0e828534dc,-7.647054,110.14146989999999,26,ChIJ3xS5Iaryei4R3DSFgg47Y5k
Mount Merapi,Jeep tours,https://www.google.com/maps/place/Mount+Merapi/data=!4m2!3m1!1s0x2e7a641ec0ff2fa5:0xe92612624cad8800,-7.5407175,110.44572409999999,27,ChIJpS__wB5kei4RAIitTGISJuk
Pasthy Love Bird Market Yogyakarta,,https://www.google.com/maps/place/Pasthy+Love+Bird+Market+Yogyakarta/data=!4m2!3m1!1s0x2e7a57b87f1b651d:0x7367b657b6fa6d4a,-7.8257724,110.3552247,28,ChIJHWUbf7hXei4RSm36tle2Z3M
Pasar Beringharjo,,https://www.google.com/maps/place/Pasar+Beringharjo/data=!4m2!3m1!1s0x2e7af7fe02ca3761:0x39ebbc4df90b410c,-7.798812,110.36573709999999,29,ChIJYTfKAv73ei4RDEEL-U286zk
Jl. Prawirotaman,hipster / artsy area,https://www.google.com/maps/place/Jl.+Prawirotaman/data=!4m2!3m1!1s0x2e7a57a3b3a61435:0x774108c3c95d17b9,-7.8191529,110.3706155,30,ChIJNRSms6NXei4RuRddycMIQXc
Klinik Kopi,,https://www.google.com/maps/place/Klinik+Kopi/data=!4m2!3m1!1s0x2e7a5916ccfd34f3:0x864de6e7288bfc5d,-7.737984399999999,110.39441199999999,31,ChIJ8zT9zBZZei4RXfyLKOfmTYY
Bukit Panguk Kediwung,,https://www.google.com/maps/place/Bukit+Panguk+Kediwung/data=!4m2!3m1!1s0x2e7bacb24995d023:0x95aec26c5e9774a2,-7.9583695,110.4407622,32,ChIJI9CVSbKsey4RonSXXmzCrpU
Becici Peak,,https://www.google.com/maps/place/Becici+Peak/data=!4m2!3m1!1s0x2e7a531aaaaaaaab:0x6c28149b91ea59f4,-7.9020355,110.4374627,33,ChIJq6qqqhpTei4R9FnqkZsUKGw
Alun Alun Kidul,"night/weekend, bling-bling cars",https://www.google.com/maps/place/Alun+Alun+Kidul/data=!4m2!3m1!1s0x2e7a5796d3ee690f:0x50562263d6351120,-7.811939299999999,110.3632767,34,ChIJD2nu05ZXei4RIBE11mMiVlA
PRAMBANAN Temple,,https://www.google.com/maps/place/PRAMBANAN+Temple/data=!4m2!3m1!1s0x2e7a5ae3dbd859d1:0x19e7a03b25955a2d,-7.752020600000001,110.49146739999999,35,ChIJ0VnY2-Naei4RLVqVJTug5xk
Borobudur Temple,sunrise,https://www.google.com/maps/place/Borobudur+Temple/data=!4m2!3m1!1s0x2e7a8cf009a7d697:0xdd34334744dc3cb,-7.6078738,110.2037513,36,ChIJl9anCfCMei4Ry8NNdDRD0w0
Taman Sari,water castle,https://www.google.com/maps/place/Taman+Sari/data=!4m2!3m1!1s0x2e7a5793d0c2cf2b:0x276a21f8a01cbe13,-7.810129000000001,110.3597186,37,ChIJK8_C0JNXei4RE74coPghaic
Bakso Klenger Ratu Sari (Meatball),giant Bakso (meatball),https://www.google.com/maps/place/Bakso+Klenger+Ratu+Sari+(Meatball)/data=!4m2!3m1!1s0x2e7a59c228c99057:0xeb233d5535e1d4ce,-7.7791404,110.4001351,38,ChIJV5DJKMJZei4RztThNVU9I-s
The Palace of Yogyakarta,,https://www.google.com/maps/place/The+Palace+of+Yogyakarta/data=!4m2!3m1!1s0x2e7a5796db06c7ef:0x395271cf052b276c,-7.8052845,110.3642031,39,ChIJ78cG25ZXei4RbCcrBc9xUjk
Jl. Malioboro,,https://www.google.com/maps/place/Jl.+Malioboro/data=!4m2!3m1!1s0x2e7a5825fa6106c5:0x3ea4c521a5ed1133,-7.7926566,110.3658454,40,ChIJxQZh-iVYei4RMxHtpSHFpD4
Eiscafe Banco,,https://www.google.com/maps/place/Eiscafe+Banco/data=!4m2!3m1!1s0x4799db36195ae265:0xa91f4b123496a00e,48.777360599999994,9.175058199999999,41,ChIJZeJaGTbbmUcRDqCWNBJLH6k
Schlossplatz Stuttgart,,https://www.google.com/maps/place/Schlossplatz+Stuttgart/data=!4m2!3m1!1s0x4799db35a609056f:0x816f73494c40723a,48.7784785,9.1795481,42,ChIJbwUJpjXbmUcROnJATElzb4E
Schillerplatz,,https://www.google.com/maps/place/Schillerplatz/data=!4m2!3m1!1s0x4799db358f1cc33f:0x6fb5727358673378,48.2017608,16.365343,43,ChIJrcftNoUHbUcRiT_dvyTPINU
Porsche Museum,,https://www.google.com/maps/place/Porsche+Museum/data=!4m2!3m1!1s0x4799da8732ced9e1:0x3c80648eb55f7987,33.8509911,-118.27922129999999,44,ChIJZ7wKUko13YAR2A0Dw9ry7MQ
Mercedes-Benz Museum,,https://www.google.com/maps/place/Mercedes-Benz+Museum/data=!4m2!3m1!1s0x4799c4feda1ddf91:0xc166f4f1bffb4b94,48.7883399,9.2336743,45,ChIJkd8d2v7EmUcRlEv7v_H0ZsE
Domaine Pierre Adam | Vins d'Alsace,no reservations required ,https://www.google.com/maps/place/Domaine+Pierre+Adam+%7C+Vins+d'Alsace/data=!4m2!3m1!1s0x4791612826e007df:0x68bf17cff936ea47,48.127852600000004,7.284207799999999,46,ChIJ3wfgJihhkUcRR-o2-c8Xv2g
La Petite Venise,,https://www.google.com/maps/place/La+Petite+Venise/data=!4m2!3m1!1s0x479165ef5006a63d:0xe758095d72e39015,48.0739795,7.3572869999999995,47,ChIJPaYGUO9lkUcRFZDjcl0JWOc
Galleria Vittorio Emanuele II,,https://www.google.com/maps/place/Galleria+Vittorio+Emanuele+II/data=!4m2!3m1!1s0x47793506fd86b6c3:0x270b9ca95809d416,45.4658434,9.1899401,48,ChIJw7aG_QY1eUcRFtQJWKmcCyc
P.za del Duomo,,https://www.google.com/maps/place/P.za+del+Duomo/data=!4m2!3m1!1s0x4786c6ae939351df:0xd445dec2978d0e3f,45.4637188,9.1906043,49,ChIJ31GTk67GhkcRPw6Nl8LeRdQ
Alpe di Siusi,,https://www.google.com/maps/place/Alpe+di+Siusi/data=!4m2!3m1!1s0x47786d388c2d1fab:0xb3117015b5a492e,46.5423435,11.6168855,50,ChIJryhkuM4UeEcRO8LvfWPzGJQ
Cable car Sass Pordoi,,https://www.google.com/maps/place/Cable+car+Sass+Pordoi/data=!4m2!3m1!1s0x47786ae9b8729489:0xab074cabca1a112a,46.4882889,11.811195399999999,51,ChIJiZRyuOlqeEcRKhEayqtMB6s
Karersee,,https://www.google.com/maps/place/Karersee/data=!4m2!3m1!1s0x47786fe8e28162b7:0xdb332cfdd84fb462,46.4092273,11.5750645,52,ChIJt2KB4uhveEcRYrRP2P0sM9s
Restaurant Poseidon,Greek,https://www.google.com/maps/place/Restaurant+Poseidon/data=!4m2!3m1!1s0x479e7672b932de4f:0xfc5f2245d33ed156,32.9621306,-117.268125,53,ChIJCcxNSjUP3IARniW80QykzxY
Zephyr Bar,,https://www.google.com/maps/place/Zephyr+Bar/data=!4m2!3m1!1s0x479ddf66b79392eb:0x5338e4fb418e2a1c,37.6800451,-121.7746562,54,ChIJcYUmaJjnj4ARiMpY9X4cdLA
Auroom,"super cocktails, need to make reservations ",https://www.google.com/maps/place/Auroom/data=!4m2!3m1!1s0x479ddf5dc743fb9d:0xee6bdddc9099c0d,58.349590299999996,26.926704400000002,55,ChIJobDvykUv60YRQaxmRU1QAl8
Brezelina,Butterbrezn,https://www.google.com/maps/place/Brezelina/data=!4m2!3m1!1s0x479e758b2a7bfcf9:0xb79ec40e51dcf59,48.1390381,11.565202699999999,56,ChIJS1pB5PZ1nkcRtOI8G6gsfVQ
Munich Soup Kitchen,snacks ,https://www.google.com/maps/place/Munich+Soup+Kitchen/data=!4m2!3m1!1s0x479e758a9d1b12ef:0xd1a4ca5fc02eac3b,48.1347722,11.576272,57,ChIJ7xIbnYp1nkcRO6wuwF_KpNE
Chopan Schwabing,,https://www.google.com/maps/place/Chopan+Schwabing/data=!4m2!3m1!1s0x479e75b9ba8f6fb1:0xd8e0b218bce28f3,48.1617526,11.589178700000001,58,ChIJsW-Purl1nkcR8yjOiyELjg0
Steinheil 16,Super Schnitzel,https://www.google.com/maps/place/Steinheil+16/data=!4m2!3m1!1s0x479e75e5cbc8ff45:0xff72ff3b15a14662,48.1498993,11.564211,59,ChIJRf_Iy-V1nkcRYkahFTv_cv8
Ballabeni Icecream Stammhaus,,https://www.google.com/maps/place/Ballabeni+Icecream+Stammhaus/data=!4m2!3m1!1s0x479e75ec3f79ac31:0x7e785e0b56c2cf65,48.148481499999995,11.574601399999999,60,ChIJMax5P-x1nkcRZc_CVgteeH4
Technik Museum Sinsheim,,https://www.google.com/maps/place/Technik+Museum+Sinsheim/data=!4m2!3m1!1s0x479791c66605566f:0x9fb2eb226944dd63,49.238783999999995,8.897242499999999,61,ChIJb1YFZsaRl0cRY91EaSLrsp8
Westfriedhof,,https://www.google.com/maps/place/Westfriedhof/data=!4m2!3m1!1s0x479e765b52fd0ad3:0x81bc30dd0f47e822,48.1700981,11.5244316,62,ChIJz3clIlB2nkcR-6r9ySFl2UQ
Endless Staircase,,https://www.google.com/maps/place/Endless+Staircase/data=!4m2!3m1!1s0x479dd8ac0263ecb3:0xd94cdcb1d2178e0c,48.1327816,11.540263,63,ChIJs-xjAqzYnUcRDI4X0rHcTNk
BLITZ Club,techno club,https://www.google.com/maps/place/BLITZ+Club/data=!4m2!3m1!1s0x479ddf62d1638fd1:0x23608906958fc06b,48.1314923,11.5859911,64,ChIJ0Y9j0WLfnUcRa8CPlQaJYCM
Harry Klein,techno club,https://www.google.com/maps/place/Harry+Klein/data=!4m2!3m1!1s0x479e75f7afe2f83f:0xe10256554fc6f2f8,48.137636799999996,11.5643596,65,ChIJP_jir_d1nkcR-PLGT1VWAuE
Rote Sonne,techno club,https://www.google.com/maps/place/Rote+Sonne/data=!4m2!3m1!1s0x479e75f22a305721:0xcd9a2d3d69cf493e,48.1424914,11.570280499999999,66,ChIJIVcwKvJ1nkcRPknPaT0tms0
Idstein,colorful buildings ,https://www.google.com/maps/place/Idstein/data=!4m2!3m1!1s0x47bdb0a2913d7517:0x422435029b0a220,50.2171726,8.265894,67,ChIJF3U9kaKwvUcRIKKwKVBDIgQ
Libreria dell'Automobile,,https://www.google.com/maps/place/Libreria+dell'Automobile/data=!4m2!3m1!1s0x4786c6bbdaa38539:0x28ba92e97510fc09,45.4709401,9.201206899999999,68,ChIJOYWj2rvGhkcRCfwQdemSuig
MOTORWORLD Region Stuttgart,,https://www.google.com/maps/place/MOTORWORLD+Region+Stuttgart/data=!4m2!3m1!1s0x4799de2a86ddd1b9:0x5db723be9f0f817d,48.6903285,9.0037418,69,ChIJudHdhiremUcRfYEPn74jt10
Seceda,"take 34€ gondola to top of 2,500m mountain",https://www.google.com/maps/place/Seceda/data=!4m2!3m1!1s0x477813ee15dae6ab:0xfb0dc80bc6d0534f,46.5980566,11.7241678,70,ChIJq-baFe4TeEcRT1PQxgvIDfs
Hotel Garni Serena,,https://www.google.com/maps/place/Hotel+Garni+Serena/data=!4m2!3m1!1s0x477840c070845035:0xe8b466d4134b574c,46.4953124,11.8688047,71,ChIJNVCEcMBAeEcRTFdLE9RmtOg
Living Spaces,,https://www.google.com/maps/place/Living+Spaces/data=!4m2!3m1!1s0x80c2b8fec9c60577:0x4822fca2ab2edbb6,34.0472677,-118.341064,72,ChIJdwXGyf64woARttsuq6L8Ikg
Modani Furniture Los Angeles,,https://www.google.com/maps/place/Modani+Furniture+Los+Angeles/data=!4m2!3m1!1s0x80c2bea3b0cf1753:0x95be2a3aafd8ad8b,34.079467099999995,-118.34377479999999,73,ChIJUxfPsKO-woARi63YrzoqvpU
west elm,,https://www.google.com/maps/place/west+elm/data=!4m2!3m1!1s0x80c2b94ad886eb53:0x6958dab19b037057,34.041640799999996,-118.2564823,74,ChIJNz-s1F_HwoARhUTJevovio0
Scandinavian Designs,,https://www.google.com/maps/place/Scandinavian+Designs/data=!4m2!3m1!1s0x80c2b981813909f3:0xa76aba743f164fa,34.0301271,-118.3861371,75,ChIJ8wk5gYG5woAR-mTxQ6erdgo
Room & Board,,https://www.google.com/maps/place/Room+%26+Board/data=!4m2!3m1!1s0x80c2b983a852aacb:0x8b589df9e5c26e24,34.0301333,-118.3847833,76,ChIJy6pSqIO5woARJG7C5fmdWIs
Blueprint Furniture,,https://www.google.com/maps/place/Blueprint+Furniture/data=!4m2!3m1!1s0x80c2b9683664c343:0x2e3f3f0b16de6206,34.0106361,-118.2316733,77,ChIJ6dOolBnTwoARJrGJZkJ1Mbs
Crate and Barrel,,https://www.google.com/maps/place/Crate+and+Barrel/data=!4m2!3m1!1s0x80c2bc07bbd91a09:0x610e402289bdaf9b,34.0708645,-118.402363,78,ChIJCRrZuwe8woARm6-9iSJADmE
Kanda Massage,really fucking good deep thai massage,https://www.google.com/maps/place/Kanda+Massage/data=!4m2!3m1!1s0x3054fe7e19005f59:0xb68759388b50d3eb,36.98091,-122.017962,79,ChIJbVZK-yJAjoARL2-3FHXcy9Q
Ko Ma Beach,one of the most beautiful beaches,https://www.google.com/maps/place/Ko+Ma+Beach/data=!4m2!3m1!1s0x3055011268c3daff:0xe2aa3a231d9c2a9b,9.7986127,99.9800743,80,ChIJ_9rDaBIBVTARmyqcHSM6quI
Hollystone,,https://www.google.com/maps/place/Hollystone/data=!4m2!3m1!1s0x3054fe01105665d1:0x78601202f2deebe2,9.750032599999999,99.9878402,81,ChIJ0WVWEAH-VDAR4uve8gISYHg
GUYS BAR,,https://www.google.com/maps/place/GUYS+BAR/data=!4m2!3m1!1s0x3054fd8a9b55ca1b:0x60bcb0ba237f7274,51.5040713,-0.08796999999999999,82,ChIJvZIDWVcDdkgRDDmI1c_b3W4
Noppond Pharmacy,,https://www.google.com/maps/place/Noppond+Pharmacy/data=!4m2!3m1!1s0x3054fe7e3fff291b:0x9fc77c6df182d98d,9.712032599999999,99.9870337,83,ChIJGyn_P37-VDARjdmC8W18x58
Jinna's Massage,,https://www.google.com/maps/place/Jinna's+Massage/data=!4m2!3m1!1s0x3054fe7e1334bea5:0x2c974db3122f3aed,34.3097849,-118.4336348,84,ChIJ_2BiigyPwoAR36xRH1IKw2E
Sanya Massage,,https://www.google.com/maps/place/Sanya+Massage/data=!4m2!3m1!1s0x3054fe7fd2abde2b:0xdde0a0250e8229eb,34.0042539,-118.40875210000002,85,ChIJMVlrXRa6woAR7w9G5LTl0W8
WILD WOOD Beach Fitness,,https://www.google.com/maps/place/WILD+WOOD+Beach+Fitness/data=!4m2!3m1!1s0x3054fd9f2d0728d9:0xada07cdf37130ec6,9.698831,100.02228769999999,86,ChIJ2SgHLZ_9VDARxg4TN998oK0
Sabaii Bay Gym,,https://www.google.com/maps/place/Sabaii+Bay+Gym/data=!4m2!3m1!1s0x3054fd9a18b638ed:0xbe51e865b242ad19,9.706594899999999,100.00235029999999,87,ChIJ7Ti2GJr9VDARGa1CsmXoUb4
NASHE MESTO,,https://www.google.com/maps/place/NASHE+MESTO/data=!4m2!3m1!1s0x3054fd7530af81ed:0x2f6e2d3c0b60c7e1,9.7127724,99.9983695,88,ChIJ7YGvMHX9VDAR4cdgCzwtbi8
The Wanderlust Hostel,,https://www.google.com/maps/place/The+Wanderlust+Hostel/data=!4m2!3m1!1s0x3054fd44f32e9505:0x607b0ef9c36388ca,38.546243499999996,-106.9339006,89,ChIJF0aVOMKSP4cRlVCz61zjUws
Kuan Yin Temple (Chinese Temple),,https://www.google.com/maps/place/Kuan+Yin+Temple+(Chinese+Temple)/data=!4m2!3m1!1s0x305502119fb1e4d5:0xecad1899a711fd2b,34.073391099999995,-118.2068624,90,ChIJhUahaX_GwoAR1ZuP1kJwQUU
Koh Raham,,https://www.google.com/maps/place/Koh+Raham/data=!4m2!3m1!1s0x305501c41ddca029:0x821c1d2b7c826b64,9.7720927,99.9615176,91,ChIJKaDcHcQBVTARZGuCfCsdHII
Bodega Pool Party Koh Phangan,meet people here,https://www.google.com/maps/place/Bodega+Pool+Party+Koh+Phangan/data=!4m2!3m1!1s0x3054fd114ea5034d:0x93e7473555c7e2f1,9.7080766,100.000412,92,ChIJTQOlThH9VDAR8eLHVTVH55M
Zen Beach,,https://www.google.com/maps/place/Zen+Beach/data=!4m2!3m1!1s0x30550113cd78e5a7:0x80ffe9ef68c02cb7,33.7724329,-118.1922424,93,ChIJFV0VcTgx3YAR9nEeFncN22w
Start of Khao Ra hiking trail,,https://www.google.com/maps/place/Start+of+Khao+Ra+hiking+trail/data=!4m2!3m1!1s0x3054fdec1e73546f:0x9b3454f9f073db9a,9.7489171,100.00976569999999,94,ChIJb1RzHuz9VDARmttz8PlUNJs
Rin Nai Beach,,https://www.google.com/maps/place/Rin+Nai+Beach/data=!4m2!3m1!1s0x3054fca5e66a408f:0x14854c8087a0f07b,9.6717456,100.0677005,95,ChIJj0Bq5qX8VDARe_Cgh4BMhRQ
Wat Khao Tham,,https://www.google.com/maps/place/Wat+Khao+Tham/data=!4m2!3m1!1s0x3054fc4b1a60caeb:0x9635e28824941443,9.7077791,100.01627769999999,96,ChIJ68pgGkv8VDARQxSUJIjiNZY
Wat Phu Khao Noi,,https://www.google.com/maps/place/Wat+Phu+Khao+Noi/data=!4m2!3m1!1s0x3054fe0a7f3730d1:0x91c98aac7944e089,9.734147199999999,99.9903222,97,ChIJ0TA3fwr-VDARieBEeayKyZE
Nang Yuan Island,speedboat tour to snorkeling,https://www.google.com/maps/place/Nang+Yuan+Island/data=!4m2!3m1!1s0x30559f52daf73331:0x6d456445aacdd179,10.121997799999999,99.8128863,98,ChIJMTP32lKfVTARedHNqkVkRW0
Headtrail for Bottle Beach,,https://www.google.com/maps/place/Headtrail+for+Bottle+Beach/data=!4m2!3m1!1s0x30550329f30cb481:0x10bb24ba98bde512,9.7991962,100.0199403,99,ChIJgbQM8ykDVTAREuW9mLokuxA
Trekking,,https://www.google.com/maps/place/Trekking/data=!4m2!3m1!1s0x305503d8ed5698eb:0xc56fe7ef0ad5e6c9,34.158197799999996,-118.37125900000001,100,ChIJA7moQTK-woARFIiJDVNKvYg
Chaloklum Beach,,https://www.google.com/maps/place/Chaloklum+Beach/data=!4m2!3m1!1s0x305503e3e6a55545:0xb5e643b4fc028c66,9.7868687,100.0042816,101,ChIJRVWl5uMDVTARZowC_LRD5rU
Malibu Beach,,https://www.google.com/maps/place/Malibu+Beach/data=!4m2!3m1!1s0x3055022fb58c7933:0xeae7d17dab7349d8,34.0380585,-118.69234379999997,102,ChIJP9YI-akd6IARWozqsnEtt5M
Thong Sala Saturday Local Market,,https://www.google.com/maps/place/Thong+Sala+Saturday+Local+Market/data=!4m2!3m1!1s0x3054ff613e969755:0x6c356e4408dfaa08,9.7091347,99.98981239999999,103,ChIJVZeWPmH_VDARCKrfCERuNWw
Namtok Than Sadet National Park,,https://www.google.com/maps/place/Namtok+Than+Sadet+National+Park/data=!4m2!3m1!1s0x3054fd5d8d66c823:0xce07da79ace085eb,9.745640999999999,100.059303,104,ChIJI8hmjV39VDAR64XgrHnaB84
Phaeng Noi Waterfall,,https://www.google.com/maps/place/Phaeng+Noi+Waterfall/data=!4m2!3m1!1s0x3054fd94da246427:0xb511cc3e3a25945c,9.7349778,100.0144052,105,ChIJJ2Qk2pT9VDARXJQlOj7MEbU
Paradise Waterfall,,https://www.google.com/maps/place/Paradise+Waterfall/data=!4m2!3m1!1s0x3055035c0b78770f:0x28684876e9c047af,34.2144263,-118.910559,106,ChIJDY3HFfcw6IARkSYpLY92o4M
Mae Haad Beach,snorkeling,https://www.google.com/maps/place/Mae+Haad+Beach/data=!4m2!3m1!1s0x305501fd3fa45143:0x26eda11ff06f8fda,9.7946451,99.97941879999999,107,ChIJQ1GkP_0BVTAR2o9v8B-h7SY
Thong Nai Pan Beach,sunbathing,https://www.google.com/maps/place/Thong+Nai+Pan+Beach/data=!4m2!3m1!1s0x305502ea53f1da59:0xfba00118969b6845,9.7776979,100.05592329999999,108,ChIJWdrxU-oCVTARRWiblhgBoPs
Bottle Beach Viewpoint,short trek to this viewpoint,https://www.google.com/maps/place/Bottle+Beach+Viewpoint/data=!4m2!3m1!1s0x305502f99e4c3f95:0x6a29519cf6580df4,9.7887787,100.0403532,109,ChIJlT9MnvkCVTAR9A1Y9pxRKWo
Ang Thong,,https://www.google.com/maps/place/Ang+Thong/data=!4m2!3m1!1s0x3054f706a4c45527:0x40223bc2c3826c0,14.658366199999998,100.3947116,110,ChIJe5QwaqIP4jARd94r8cW6_wg
Secret Mountain Viewpoint,,https://www.google.com/maps/place/Secret+Mountain+Viewpoint/data=!4m2!3m1!1s0x3054fdb803590229:0x8680fef65f77ffc7,9.721182299999999,100.0142359,111,ChIJKQJZA7j9VDARx_93X_b-gIY
Concours Auto Spa,,https://www.google.com/maps/place/Concours+Auto+Spa/data=!4m2!3m1!1s0x80c2b54b64fc3889:0x93a2ebcefe43d90,33.846208499999996,-118.3171106,112,ChIJiTj8ZEu1woARkD3k77wuOgk
Wrap Labs,,https://www.google.com/maps/place/Wrap+Labs/data=!4m2!3m1!1s0x80e82518a0dbf3d3:0xfd63acd258ae0356,34.156542699999996,-118.83073499999999,113,ChIJ0_PboBgl6IARVgOuWNKsY_0
VIP Auto Customs Inc.,,https://www.google.com/maps/place/VIP+Auto+Customs+Inc./data=!4m2!3m1!1s0x80c2dca5c8e51c67:0x63c57b085a278bfb,34.1513906,-118.09829259999998,114,ChIJZxzlyKXcwoAR-4snWgh7xWM
VALLEY CLEAR BRA,,https://www.google.com/maps/place/VALLEY+CLEAR+BRA/data=!4m2!3m1!1s0x80c29cbf1781cf59:0xfe012b058b27239f,34.2530516,-118.5968946,115,ChIJWc-BF7-cwoARnyMniwUrAf4
Sticker City,,https://www.google.com/maps/place/Sticker+City/data=!4m2!3m1!1s0x80c297c8def27369:0x148fb5b7e7d3450c,34.155851999999996,-118.448446,116,ChIJaXPy3siXwoARDEXT57e1jxQ
Unique Auto Films,,https://www.google.com/maps/place/Unique+Auto+Films/data=!4m2!3m1!1s0x80c29972f7489253:0xe11e38c384faa977,34.1794843,-118.5422773,117,ChIJU5JI93KZwoARd6n6hMM4HuE
Ghost Shield Film,,https://www.google.com/maps/place/Ghost+Shield+Film/data=!4m2!3m1!1s0x80e830b4c28203d1:0x9f8882f9bd513d33,34.1939075,-118.9310514,118,ChIJ0QOCwrQw6IARMz1RvfmCiJ8
Silver Lake Tint,,https://www.google.com/maps/place/Silver+Lake+Tint/data=!4m2!3m1!1s0x80c2c0d155555555:0xbcf887eb3202ea21,34.103823,-118.27302399999999,119,ChIJVVVVVdHAwoARIeoCMuuH-Lw
Beverly Tint Shop,,https://www.google.com/maps/place/Beverly+Tint+Shop/data=!4m2!3m1!1s0x80c2b88760add897:0xbe95818b94781b5f,34.071038,-118.2798185,120,ChIJl9itYIe4woARXxt4lIuBlb4
Bulletproof Automotive ®,,https://www.google.com/maps/place/Bulletproof+Automotive+%C2%AE/data=!4m2!3m1!1s0x80c2c7c84e7c5c49:0xc60ca014851c0818,33.920376399999995,-118.33478,121,ChIJSVx8TsjHwoARGAgchRSgDMY
Doi Nok Pagoda,nice views ,https://www.google.com/maps/place/Doi+Nok+Pagoda/data=!4m2!3m1!1s0x30da44ee8e6ebf9b:0xa6aa43c5086bd870,18.858944599999997,98.68982779999999,122,ChIJm79uju5E2jARcNhrCMVDqqY
The Canopy Walks,,https://www.google.com/maps/place/The+Canopy+Walks/data=!4m2!3m1!1s0x30da3f371b17cf19:0x9dd247b72b58b006,41.606860399999995,-81.3050525,123,ChIJhQPEJqGnMYgRXKcAmgcim-A
Mae Sap Cave,,https://www.google.com/maps/place/Mae+Sap+Cave/data=!4m2!3m1!1s0x30da445cee064f47:0xa19629bc0404c6e2,18.8608521,98.7129272,124,ChIJR08G7lxE2jAR4sYEBLwplqE
Mon Jam,,https://www.google.com/maps/place/Mon+Jam/data=!4m2!3m1!1s0x30da406380ac6161:0xabb0ec025d7e8299,18.9357695,98.82242010000002,125,ChIJYWGsgGNA2jARmYJ-XQLssKs
Bannok Coffee Roasters,,https://www.google.com/maps/place/Bannok+Coffee+Roasters/data=!4m2!3m1!1s0x30da36e287eb08c7:0x262feb54f9966d4a,18.7364791,98.8997526,126,ChIJxwjrh-I22jARSm2W-VTrLyY
Samoeng Viewpoint,,https://www.google.com/maps/place/Samoeng+Viewpoint/data=!4m2!3m1!1s0x30da46daae40ffdf:0xe08c313ca2cb90c1,18.872740699999998,98.7816873,127,ChIJ3_9ArtpG2jARwZDLojwxjOA
Queen Sirikit Botanic Garden,,https://www.google.com/maps/place/Queen+Sirikit+Botanic+Garden/data=!4m2!3m1!1s0x30da3f36a0c5d5d3:0xa5238f23f6213c2f,18.8880345,98.8618687,128,ChIJ09XFoDY_2jARLzwh9iOPI6U
River Rock Cafe Hill,waterfall similar to Mae Sa but better with coffee,https://www.google.com/maps/place/River+Rock+Cafe+Hill/data=!4m2!3m1!1s0x30da3fcb0e5ff9fd:0xfff6a069631acb02,18.900109399999998,98.8702259,129,ChIJ_flfDss_2jARAssaY2mg9v8
Fleur Cafe & Eatery,,https://www.google.com/maps/place/Fleur+Cafe+%26+Eatery/data=!4m2!3m1!1s0x30da3fffc122829b:0xf53c297e54076946,34.0473253,-118.27042079999998,130,ChIJEf0asy3HwoARckC6kk2ijfs
WHY Coffee and Bar,,https://www.google.com/maps/place/WHY+Coffee+and+Bar/data=!4m2!3m1!1s0x30da3fa105e35f2f:0x587b8d698eb26cac,18.910029299999998,98.91787190000001,131,ChIJL1_jBaE_2jARrGyyjmmNe1g
Jalama Beach County Park,,https://www.google.com/maps/place/Jalama+Beach+County+Park/data=!4m2!3m1!1s0x80eea195bd1485f7:0x10414e3fb599dfbe,34.5108209,-120.5012803,132,ChIJ94UUvZWh7oARvt-ZtT9OQRA
Foxen Vineyard & Winery,,https://www.google.com/maps/place/Foxen+Vineyard+%26+Winery/data=!4m2!3m1!1s0x80ec08da3d1e3741:0xca605aff5c7abbe6,34.8201921,-120.2302395,133,ChIJQTcePdoI7IAR5rt6XP9aYMo
Rusack Vineyards,,https://www.google.com/maps/place/Rusack+Vineyards/data=!4m2!3m1!1s0x80e955239f3c6409:0x814f57e0cd6b99ff,34.6376436,-120.14183359999998,134,ChIJCWQ8nyNV6YAR_5lrzeBXT4E
Sanford Winery,,https://www.google.com/maps/place/Sanford+Winery/data=!4m2!3m1!1s0x80eea97ec4307619:0xc327396e247b25b4,34.6088108,-120.3289581,135,ChIJGXYwxH6p7oARtCV7JG45J8M
Barker Dam,,https://www.google.com/maps/place/Barker+Dam/data=!4m2!3m1!1s0x80dae9fd41e2ec05:0x1b7f6b403b975d0a,34.0308308,-116.14628979999999,136,ChIJBeziQf3p2oARCl2XO0Brfxs
Hidden Valley Nature Trail,,https://www.google.com/maps/place/Hidden+Valley+Nature+Trail/data=!4m2!3m1!1s0x80dae9c4343cfcf3:0xfcbfbd65f973ca3f,34.0124685,-116.16805679999997,137,ChIJ8_w8NMTp2oARP8pz-WW9v_w
Cholla Cactus Garden,,https://www.google.com/maps/place/Cholla+Cactus+Garden/data=!4m2!3m1!1s0x80da91e5fc0bef27:0x1de4cbeac6fb94b3,33.9247516,-115.929411,138,ChIJJ-8L_OWR2oARs5T7xurL5B0
La Soplaera Waterfall,,https://www.google.com/maps/place/La+Soplaera+Waterfall/data=!4m2!3m1!1s0x8c02d34802a7d7d3:0xdacd7aafe51338d8,18.0959121,-66.73672510000002,139,ChIJ09enAkjTAowR2DgT5a96zdo
Mirador de Guajataca,,https://www.google.com/maps/place/Mirador+de+Guajataca/data=!4m2!3m1!1s0x8c02ea8a80b9095b:0x30a0218c5ed3b8f9,18.4889318,-66.95144470000001,140,ChIJWwm5gIrqAowR-bjTXowhoDA
Cueva Ventana,,https://www.google.com/maps/place/Cueva+Ventana/data=!4m2!3m1!1s0x8c02de9503ef96bb:0x4d5b3c2239523ddf,18.4889723,-66.93442139999999,141,ChIJowEmXGPrAowRP1_PLScUZNY
Cerro Las Tetas,,https://www.google.com/maps/place/Cerro+Las+Tetas/data=!4m2!3m1!1s0x8c034a095044c82b:0x1c1d0904ebda9294,18.093332999999998,-66.231389,142,ChIJK8hEUAlKA4wRlJLa6wQJHRw
Cerro de Punta Trailhead,,https://www.google.com/maps/place/Cerro+de+Punta+Trailhead/data=!4m2!3m1!1s0x8c0329c6f24be2ff:0x2cf49b7d8a7def46,18.1694563,-66.5878402,143,ChIJ_-JL8sYpA4wRRu99in2b9Cw
Reserva Marina La Cueva del Indio,,https://www.google.com/maps/place/Reserva+Marina+La+Cueva+del+Indio/data=!4m2!3m1!1s0x8c02e1bf646927af:0xbdf404b7618355d1,18.4911758,-66.6407952,144,ChIJrydpZL_hAowR0VWDYbcE9L0
Sandra Farms Coffee,,https://www.google.com/maps/place/Sandra+Farms+Coffee/data=!4m2!3m1!1s0x8c02d1ddf598d6ff:0x2baa4d88436a3ec9,18.2100086,-66.8193036,145,ChIJ_9aY9d3RAowRyT5qQ4hNqis
Hacienda San Pedro - Cafe,,https://www.google.com/maps/place/Hacienda+San+Pedro+-+Cafe/data=!4m2!3m1!1s0x8c0328f69e3af191:0xacef4b1dc22543e5,18.4469101,-66.0679083,146,ChIJHSZeT0pvA4wRkBWrB35_7j8
Ocean Lab Brewing Co.,"draft beer, local style food",https://www.google.com/maps/place/Ocean+Lab+Brewing+Co./data=!4m2!3m1!1s0x8c0365cd24844991:0xf2090e97e2fc8446,18.4470913,-65.9996603,147,ChIJkUmEJM1lA4wRRoT84pcOCfI
La Casita Blanca,like walking into grandma’s house,https://www.google.com/maps/place/La+Casita+Blanca/data=!4m2!3m1!1s0x8c036f5372d88091:0x1411b3c260629a6c,18.4433854,-66.0536899,148,ChIJkYDYclNvA4wRbJpiYMKzERQ
Atuh Beach,,https://www.google.com/maps/place/Atuh+Beach/data=!4m2!3m1!1s0x2dd2779b403c8185:0x25d68418b583cab3,-8.7734116,115.62181869999998,149,ChIJhYE8QJt30i0Rs8qDtRiE1iU
Tembeling Springs,,https://www.google.com/maps/place/Tembeling+Springs/data=!4m2!3m1!1s0x2dd271d3a3dc3ed5:0xac65e4abded76d14,-8.770746299999999,115.49685989999999,150,ChIJ1T7co9Nx0i0RFG3X3qvkZaw
Banah Cliff Point,,https://www.google.com/maps/place/Banah+Cliff+Point/data=!4m2!3m1!1s0x2dd2703c9e92668b:0xebfda3dd934d2028,-8.7670731,115.48690359999999,151,ChIJi2aSnjxw0i0RKCBNk92j_es
Crystal Bay Nusa Penida,,https://www.google.com/maps/place/Crystal+Bay+Nusa+Penida/data=!4m2!3m1!1s0x2dd26e084c2a5fe3:0x4d4e5b852751c763,-8.7151611,115.45905649999999,152,ChIJ418qTAhu0i0RY8dRJ4VbTk0
Broken Beach,,https://www.google.com/maps/place/Broken+Beach/data=!4m2!3m1!1s0x2dd26fdf21a72dcb:0x2fdb3f30123947a5,-8.7327938,115.4508319,153,ChIJyy2nId9v0i0RpUc5EjA_2y8
Angel Billabong,,https://www.google.com/maps/place/Angel+Billabong/data=!4m2!3m1!1s0x2dd26f817e9cb20b:0x168ba6d3daf31579,-8.7335003,115.44897879999998,154,ChIJC7KcfoFv0i0ReRXz2tOmixY
LE kopi,,https://www.google.com/maps/place/LE+kopi/data=!4m2!3m1!1s0x2dd27375b55862d9:0x374be591c8320805,33.9970124,-118.4299934,155,ChIJ4dKZaWa6woARBI6IK8Vne8M
Diamond Beach Nusa Penida,,https://www.google.com/maps/place/Diamond+Beach+Nusa+Penida/data=!4m2!3m1!1s0x2dd277161f77ae31:0xdad8747b0363d8d,-8.7751348,115.62022819999999,156,ChIJMa53HxZ30i0RjT02sEeHrQ0
Kelingking Beach Nusa Penida,"go after 3pm, less crowded",https://www.google.com/maps/place/Kelingking+Beach+Nusa+Penida/data=!4m2!3m1!1s0x2dd26f1616cd2cc7:0xee84b7df0afbff19,-8.7503865,115.47262180000001,157,ChIJxyzNFhZv0i0RGf_7Ct-3hO4
Horses of Gili,,https://www.google.com/maps/place/Horses+of+Gili/data=!4m2!3m1!1s0x2dcde0a6407e10cb:0x7f9029f6a26eb1e5,-8.3438655,116.03938889999999,158,ChIJyxB-QKbgzS0R5bFuovYpkH8
Turtle Shore.,east side of island has sea turtles ,https://www.google.com/maps/place/Turtle+Shore./data=!4m2!3m1!1s0x2dcde0a7afcb2959:0x690de1b536950b6a,33.9948737,-117.7568336,159,ChIJr-S5REYtw4ARcWPPZhcPicE
Sade Village,,https://www.google.com/maps/place/Sade+Village/data=!4m2!3m1!1s0x2dcda9172d983baf:0xfa9eed5a2752a97c,-8.8393082,116.29198710000001,160,ChIJrzuYLRepzS0RfKlSJ1rtnvo
Mount Rinjani,,https://www.google.com/maps/place/Mount+Rinjani/data=!4m2!3m1!1s0x2dcc2d800216cccf:0x3c03cdbf11d30a1e,-8.4112952,116.45734879999999,161,ChIJz8wWAoAtzC0RHgrTEb_NAzw
Hotsprings Rinjani,,https://www.google.com/maps/place/Hotsprings+Rinjani/data=!4m2!3m1!1s0x2dcc2d4cbed01c37:0x1d14ed3f9595018d,-8.3897473,116.42053759999999,162,ChIJNxzQvkwtzC0RjQGVlT_tFB0
Goa Giri Putri Temple,,https://www.google.com/maps/place/Goa+Giri+Putri+Temple/data=!4m2!3m1!1s0x2dd276a14dbda87f:0xc4a8a48f281af2f3,-8.7089515,115.5861147,163,ChIJf6i9TaF20i0R8_IaKI-kqMQ
Guyangan Waterfall Nusa Penida,,https://www.google.com/maps/place/Guyangan+Waterfall+Nusa+Penida/data=!4m2!3m1!1s0x2dd27a7f26d02f55:0x4ad0e821647ffbdc,-8.7812546,115.51950180000001,164,ChIJVS_QJn960i0R3Pt_ZCHo0Eo
Gala-Gala Underground House,,https://www.google.com/maps/place/Gala-Gala+Underground+House/data=!4m2!3m1!1s0x2dd26db9b12f850f:0x17ba99afb66e97dc,-8.691897599999999,115.43971030000002,165,ChIJD4Uvsblt0i0R3Jdutq-Zuhc
Kai Tod Fried Chicken,,https://www.google.com/maps/place/Kai+Tod+Fried+Chicken/data=!4m2!3m1!1s0x30da6d2121436a09:0x2ce78cfbc0031ec5,34.0702723,-118.35184559999999,166,ChIJJ2V3IDW5woARcqn1DJ9LyQ0
Kong Gnam View point,,https://www.google.com/maps/place/Kong+Gnam+View+point/data=!4m2!3m1!1s0x30da7088f08733e1:0x6d4c2545dc086a6c,19.2236424,98.67310049999999,167,ChIJ4TOH8Ihw2jARbGoI3EUlTG0
Santichon Village,Chinese village. try fried shiitake mushrooms and steamed black chicken,https://www.google.com/maps/place/Santichon+Village/data=!4m2!3m1!1s0x30da81fe625cfae3:0x811eac3facc04080,19.3707471,98.4027162,168,ChIJ4_pcYv6B2jARgEDArD-sHoE
Sunset Bar,,https://www.google.com/maps/place/Sunset+Bar/data=!4m2!3m1!1s0x30da8036f4eb5665:0x633a0456e10bfe13,34.098243499999995,-118.3508002,169,ChIJNzD1ud6-woARWu3kgTJVYC4
Noodle Soup House Ban Jabo,bomb spicy tom yum with your feet dangling off the side of the wooden building floor,https://www.google.com/maps/place/Noodle+Soup+House+Ban+Jabo/data=!4m2!3m1!1s0x30d06d75c51dc0d7:0x260acd144735f6e8,19.5814797,98.20594679999999,170,ChIJ18AdxXVt0DAR6PY1RxTNCiY
Doi Kiew Lom Viewpoint,,https://www.google.com/maps/place/Doi+Kiew+Lom+Viewpoint/data=!4m2!3m1!1s0x30d079dcd96b097f:0x42f9e8019fd02540,19.4457839,98.3191576,171,ChIJfwlr2dx50DARQCXQnwHo-UI
POP SERVICE @Car Rent (Somphet),manual motorbikes,https://www.google.com/maps/place/POP+SERVICE+@Car+Rent+(Somphet)/data=!4m2!3m1!1s0x30da3aa326553b29:0xa906b2586aea8e8f,18.7912687,98.99377609999999,172,ChIJKTtVJqM62jARj47qaliyBqk
Dekdoi Coffee Jabo,,https://www.google.com/maps/place/Dekdoi+Coffee+Jabo/data=!4m2!3m1!1s0x30d06df1bffc4c0d:0x6bf9a6d4c1d47896,19.581632499999998,98.2060132,173,ChIJDUz8v_Ft0DARlnjUwdSm-Ws
Nam Lod Cave,,https://www.google.com/maps/place/Nam+Lod+Cave/data=!4m2!3m1!1s0x30d06fd91af19d1d:0x6a19224c76e57e7a,19.5653815,98.27918350000002,174,ChIJHZ3xGtlv0DARen7ldkwiGWo
Wat Si Don Chai,,https://www.google.com/maps/place/Wat+Si+Don+Chai/data=!4m2!3m1!1s0x30d07f843ea9dfb5:0x1e7f74b49bbd9bd9,18.7816558,99.00047599999999,175,ChIJbxh3lqc62jARO5p2K3d0JGs
Jaey Cafe,,https://www.google.com/maps/place/Jaey+Cafe/data=!4m2!3m1!1s0x30da83ef6e1f078b:0x36c539a05fd67793,34.0917099,-118.1442393,176,ChIJG7Xrnh3FwoARVPguLd4a8Bo
Pai Canyon,visit at sunset,https://www.google.com/maps/place/Pai+Canyon/data=!4m2!3m1!1s0x30da80e8f3eba0f9:0x83dbe124b195aec2,19.3061309,98.4525058,177,ChIJ-aDr8-iA2jARwq6VsSTh24M
Mo Pang Waterfall,,https://www.google.com/maps/place/Mo+Pang+Waterfall/data=!4m2!3m1!1s0x30d07f54991c2747:0x233a0a2ca702efe8,19.378833,98.3757871,178,ChIJRyccmVR_0DAR6O8CpywKOiM
Huay Pu Keng - Kayan Village,,https://www.google.com/maps/place/Huay+Pu+Keng+-+Kayan+Village/data=!4m2!3m1!1s0x30daae41e22db319:0xe3e261ca382b65e6,19.236645799999998,97.8940878,179,ChIJGbMt4kGu2jAR5mUrOMph4uM
Wat Phra That Doi Kongmu,sunrise / sunset,https://www.google.com/maps/place/Wat+Phra+That+Doi+Kongmu/data=!4m2!3m1!1s0x30daa5f1aaaaaaab:0xca043cd74f1bf1d0,19.3000638,97.9605217,180,ChIJq6qqqvGl2jAR0PEbT9c8BMo
Coffee Morning,,https://www.google.com/maps/place/Coffee+Morning/data=!4m2!3m1!1s0x30daa5f055d50833:0x76535177ea373760,34.1078549,-118.25130290000001,181,ChIJ1a0vOcTBwoARBjEAJDyAQE0
Su Tong Pae Bridge,,https://www.google.com/maps/place/Su+Tong+Pae+Bridge/data=!4m2!3m1!1s0x30daa9b0215a385d:0x9e24de82e71da9d7,19.3889869,97.95416159999999,182,ChIJXThaIbCp2jAR16kd54LeJJ4
Morning Market (Talat Chao),,https://www.google.com/maps/place/Morning+Market+(Talat+Chao)/data=!4m2!3m1!1s0x30daa606e43ce3df:0xd594089647069f5b,19.3029405,97.9667297,183,ChIJ3-M85Aam2jARW58GR5YIlNU
Empty Hut Memorial,,https://www.google.com/maps/place/Empty+Hut+Memorial/data=!4m2!3m1!1s0x30d01b1fdceaa5c7:0x3b221204baf6ce4c,19.5937703,97.9396129,184,ChIJx6Xq3B8b0DARTM72ugQSIjs
Mae La Luang Viewpoint,,https://www.google.com/maps/place/Mae+La+Luang+Viewpoint/data=!4m2!3m1!1s0x30db2f4a1aaea4c5:0x50cd0b74b655c6e2,18.5404011,97.93819940000002,185,ChIJxaSuGkov2zAR4sZVtnQLzVA
Coffee Box@Pai,,https://www.google.com/maps/place/Coffee+Box@Pai/data=!4m2!3m1!1s0x30da8176eec7beab:0xc28088dd985b1f86,19.3683314,98.43524479999999,186,ChIJq77H7naB2jARhh9bmN2IgMI
Sai Ngam hot spring,,https://www.google.com/maps/place/Sai+Ngam+hot+spring/data=!4m2!3m1!1s0x30d079420ee683a1:0x17418418abf74753,19.4590854,98.3799452,187,ChIJoYPmDkJ50DARU0f3qxiEQRc
Love Strawberry Pai,,https://www.google.com/maps/place/Love+Strawberry+Pai/data=!4m2!3m1!1s0x30da80efbd53609f:0xaaf78a7206f7245e,19.311080699999998,98.45316609999999,188,ChIJn2BTve-A2jARXiT3BnKK96o
Wat Jong Soong,,https://www.google.com/maps/place/Wat+Jong+Soong/data=!4m2!3m1!1s0x30db4f40f223c32f:0x708d6569eb32bf1c,18.1605311,97.9304757,189,ChIJL8Mj8kBP2zARHL8y62lljXA
Morning Market,,https://www.google.com/maps/place/Morning+Market/data=!4m2!3m1!1s0x30db4f304277e2b5:0x8fd2184e71478c91,34.041197,-118.24992459999999,190,ChIJOwJr81vHwoARN-9RSxi9RWA
Wat Chom Thong,,https://www.google.com/maps/place/Wat+Chom+Thong/data=!4m2!3m1!1s0x30db4f4391dca8e1:0x34bb4688d87413eb,18.4208446,98.67913279999999,191,ChIJ5QdUTwqw2zARvPNGRtN4zn8
Wat Phrathat Chom Mon,,https://www.google.com/maps/place/Wat+Phrathat+Chom+Mon/data=!4m2!3m1!1s0x30db48d937678a79:0xf3b850efdd9c7f31,18.185833199999998,97.9197576,192,ChIJeYpnN9lI2zARMX-c3e9QuPM
"Pa Chang cliff, Ob Luang National Park",inexpensive good restaurant at park entrance,"https://www.google.com/maps/place/Pa+Chang+cliff,+Ob+Luang+National+Park/data=!4m2!3m1!1s0x30db9fe2bf2ec325:0x1d1994c1de8d3a09",18.226486899999998,98.4847223,193,ChIJJcMuv-Kf2zARCTqN3sGUGR0
Huai Nam Dang National Park,cherry blossoms at Khun Mae Ya,https://www.google.com/maps/place/Huai+Nam+Dang+National+Park/data=!4m2!3m1!1s0x30da7964f692a723:0x1d0100b2deabb0e0,19.303936,98.59886929999999,194,ChIJI6eS9mR52jAR4LCr3rIAAR0
"Maesawannoi Waterfall, Mae Sariang Town",hike to waterfall in jungle,"https://www.google.com/maps/place/Maesawannoi+Waterfall,+Mae+Sariang+Town/data=!4m2!3m1!1s0x30db40cd9586fa4d:0x863ea109d1fbb20d",18.180064700000003,98.07175529999999,195,ChIJTfqGlc1A2zARDbL70QmhPoY
Huai Kung Viewpoint,stop for coffee ,https://www.google.com/maps/place/Huai+Kung+Viewpoint/data=!4m2!3m1!1s0x30db698d87c72e7b:0x87294a4947d504a6,18.1476831,98.1590445,196,ChIJey7Hh41p2zARpgTVR0lKKYc
Bo Kaeo Pine Tree Garden,,https://www.google.com/maps/place/Bo+Kaeo+Pine+Tree+Garden/data=!4m2!3m1!1s0x30db73fb962c4e77:0xf5669e28ac50b8ce,18.1562962,98.38849809999999,197,ChIJd04slvtz2zARzrhQrCieZvU
Pang Mapha Viewpoint,,https://www.google.com/maps/place/Pang+Mapha+Viewpoint/data=!4m2!3m1!1s0x30d072697b64dcc7:0x7d2c1cd90556bdb,19.5582007,98.1523091,198,ChIJx9xke2ly0DAR22tVkM3B0gc
Ing Doi Guesthouse,,https://www.google.com/maps/place/Ing+Doi+Guesthouse/data=!4m2!3m1!1s0x30da8030df9145e3:0x5c130449edcb0bcf,19.3560159,98.44864869999999,199,ChIJ40WR3zCA2jARzwvL7UkEE1w
Crossroads House,,https://www.google.com/maps/place/Crossroads+House/data=!4m2!3m1!1s0x30daaf586f6dc409:0xdba9d2ea495e92a7,33.9639261,-118.18837239999999,200,ChIJT2WgAKTOwoAR8f_vs0klne4
Mae Sariang Home,,https://www.google.com/maps/place/Mae+Sariang+Home/data=!4m2!3m1!1s0x30db499840820af7:0xcf57dac0b571a3c5,18.163089199999998,97.9321822,201,ChIJ9wqCQJhJ2zARxaNxtcDaV88
Khuang Na Farmview,,https://www.google.com/maps/place/Khuang+Na+Farmview/data=!4m2!3m1!1s0x30db044381619673:0xab80ff5a7469395c,18.4978949,98.36653679999999,202,ChIJc5ZhgUME2zARXDlpdFr_gKs
Ang Ka Nature Trail,,https://www.google.com/maps/place/Ang+Ka+Nature+Trail/data=!4m2!3m1!1s0x30dbaa9efc685acf:0x75234e06d04429f4,18.588454199999997,98.486105,203,ChIJHXoXXHIA2zARfsawBGeiXPg
Kew Mae Pan nature trail,,https://www.google.com/maps/place/Kew+Mae+Pan+nature+trail/data=!4m2!3m1!1s0x30db0082cda59599:0x63f1dbb6ea3be195,18.5558697,98.4822195,204,ChIJmZWlzYIA2zARleE76rbb8WM
Chiang Mai Erotic Garden,,https://www.google.com/maps/place/Chiang+Mai+Erotic+Garden/data=!4m2!3m1!1s0x30da15f99c3ccb65:0x757af8610079fc0f,18.97812,98.916107,205,ChIJZcs8nPkV2jARD_x5AGH4enU
Mok Fa Waterfall,,https://www.google.com/maps/place/Mok+Fa+Waterfall/data=!4m2!3m1!1s0x30da6c49270764f9:0xae5d5ee57568226,19.1123077,98.7747929,206,ChIJ-WQHJ0ls2jARJoJWV-7V5Qo
Tha Pai Memorial Bridge,,https://www.google.com/maps/place/Tha+Pai+Memorial+Bridge/data=!4m2!3m1!1s0x30da80bfbc14715b:0x10a0f9ca0982a59a,19.297427199999998,98.46505239999999,207,ChIJW3EUvL-A2jARmqWCCcr5oBA
Coffee in Love,best views between Pai and Chiang Mai,https://www.google.com/maps/place/Coffee+in+Love/data=!4m2!3m1!1s0x30da81b1c493a675:0xee267b4ff818c23f,34.036549,-118.25745010000001,208,ChIJj8rT0UrHwoAR4IMT6k6R1ow
Kho Ku So Bamboo Bridge,,https://www.google.com/maps/place/Kho+Ku+So+Bamboo+Bridge/data=!4m2!3m1!1s0x30da83d5c874a0f1:0x9ca555b654c52d7c,19.322507899999998,98.39316579999999,209,ChIJ8aB0yNWD2jARfC3FVLZVpZw
Yun Lai Viewpoint,,https://www.google.com/maps/place/Yun+Lai+Viewpoint/data=!4m2!3m1!1s0x30da8201f4379731:0xea280ac5d8994cea,19.369037199999998,98.395388,210,ChIJMZc39AGC2jAR6kyZ2MUKKOo
Big Buddha Pai,,https://www.google.com/maps/place/Big+Buddha+Pai/data=!4m2!3m1!1s0x30da8038c8b734fd:0xdbc27eb04000857e,19.3500969,98.4561919,211,ChIJ_TS3yDiA2jARfoUAQLB-wts
Doi Kiew Lom View Point,,https://www.google.com/maps/place/Doi+Kiew+Lom+View+Point/data=!4m2!3m1!1s0x30da791cc4d03e53:0xd9fca1cf034441db,19.313817699999998,98.6041721,212,ChIJUz7QxBx52jAR20FEA8-h_Nk
Mae La Na Cave,,https://www.google.com/maps/place/Mae+La+Na+Cave/data=!4m2!3m1!1s0x30d06dff2ad981f9:0xc78e58985b953246,19.574644,98.21588299999999,213,ChIJ-YHZKv9t0DARRjKVW5hYjsc
View Point,,https://www.google.com/maps/place/View+Point/data=!4m2!3m1!1s0x30d06d1c61bc9c97:0x9b4a7a6de11f6da0,34.228736999999995,-118.182953,214,ChIJwzhreZXpwoARdlYr_7FKeCA
Tham Pla - Namtok Pha Suea National Park Office,visit fish cave,https://www.google.com/maps/place/Tham+Pla+-+Namtok+Pha+Suea+National+Park+Office/data=!4m2!3m1!1s0x30d00ed91a92c337:0x740197075623bc29,19.425603199999998,97.9871311,215,ChIJN8OSGtkO0DARKbwjVgeXAXQ
Namtok Pha Suea - Pha Sua Waterfall,,https://www.google.com/maps/place/Namtok+Pha+Suea+-+Pha+Sua+Waterfall/data=!4m2!3m1!1s0x30d005ffbded599b:0xf4d9cd506ab4be95,19.490837,97.9578805,216,ChIJm1ntvf8F0DARlb60alDN2fQ
Nong Chong Kham,view at night,https://www.google.com/maps/place/Nong+Chong+Kham/data=!4m2!3m1!1s0x30daa549eb56a017:0x832f1a568d451c76,19.299261299999998,97.9678921,217,ChIJF6BW60ml2jARdhxFjVYaL4M
MHS Provincial Chamber of Commerce,"Mae Hong Son Loop certificate, try local aromatic coffee",https://www.google.com/maps/place/MHS+Provincial+Chamber+of+Commerce/data=!4m2!3m1!1s0x30daa5fc99e1cb0f:0x7e005cc5bfafbd32,19.292045200000004,97.9645072,218,ChIJD8vhmfyl2jARMr2vv8VcAH4
Pha Bong Hot Spring,,https://www.google.com/maps/place/Pha+Bong+Hot+Spring/data=!4m2!3m1!1s0x30daa5498d9eefc7:0xe78b887306149ef9,19.2109499,97.978916,219,ChIJx--ejUml2jAR-Z4UBnOIi-c
Pha Bong Viewpoint,,https://www.google.com/maps/place/Pha+Bong+Viewpoint/data=!4m2!3m1!1s0x30dabaef06b80f67:0xc2fdd0abec0d62e7,19.171480499999998,97.9896302,220,ChIJZw-4Bu-62jAR52IN7KvQ_cI
Namtok Mae Surin National Park,,https://www.google.com/maps/place/Namtok+Mae+Surin+National+Park/data=!4m2!3m1!1s0x30dabbfd58d3ffc1:0x45eae96c2752e10,18.942547299999998,98.0712134,221,ChIJwf_TWP272jAREC51wpauXgQ
Thai-Japan Friendship Memorial Hall Khumyuam,,https://www.google.com/maps/place/Thai-Japan+Friendship+Memorial+Hall+Khumyuam/data=!4m2!3m1!1s0x30dacfdfb4879263:0x44515b27d4cf8986,18.8302747,97.93317449999999,222,ChIJY5KHtN_P2jARhonP1CdbUUQ
Mae Ya Water Fall,,https://www.google.com/maps/place/Mae+Ya+Water+Fall/data=!4m2!3m1!1s0x30dbaf43bd171d47:0xcc0c05d6c71c2389,18.4396776,98.5979932,223,ChIJRx0XvUOv2zARiSMcx9YFDMw
Wachirathan Waterfall,,https://www.google.com/maps/place/Wachirathan+Waterfall/data=!4m2!3m1!1s0x30dbac389d463eeb:0x83e852fcbecf7e37,18.542002699999998,98.5982538,224,ChIJ6z5GnTis2zARN37PvvxS6IM
Grand Pagoda Nabhapolbhumisiri,,https://www.google.com/maps/place/Grand+Pagoda+Nabhapolbhumisiri/data=!4m2!3m1!1s0x30db009c6c5dc2a1:0x24a24a98ffde2ba3,18.5533969,98.47941759999999,225,ChIJocJdbJwA2zARoyve_5hKoiQ
Ban Rak Thai,,https://www.google.com/maps/place/Ban+Rak+Thai/data=!4m2!3m1!1s0x30d0042cf8f1b971:0xfe9f1eacc4d30d6f,19.5869727,97.94257859999999,226,ChIJcbnx-CwE0DARbw3TxKwen_4
Thung Bua Tong Fields at Doi Mae U Kho,,https://www.google.com/maps/place/Thung+Bua+Tong+Fields+at+Doi+Mae+U+Kho/data=!4m2!3m1!1s0x30dac3cab069d6e9:0xe23b11800815a541,18.8947033,98.09109439999999,227,ChIJ6dZpsMrD2jARQaUVCIARO-I
Lan View Coffee,,https://www.google.com/maps/place/Lan+View+Coffee/data=!4m2!3m1!1s0x30dad7e6d5de45fb:0x8cf94fb4c92ebdd1,34.0619356,-118.3108356,228,ChIJm0HcqJq4woARejpk1V0UqYM
Doi Inthanon National Park,,https://www.google.com/maps/place/Doi+Inthanon+National+Park/data=!4m2!3m1!1s0x30dbab95555461ff:0x54e343c4fa33975b,18.5880431,98.4870612,229,ChIJa9l_HJyq2zARVHBsqbMf8PM
142 Sullivan Bar,,https://www.google.com/maps/place/142+Sullivan+Bar/data=!4m2!3m1!1s0x89c2598d94e16e2b:0xf6e0c9a8e03d064b,40.7271061,-74.002213,230,ChIJK27hlI1ZwokRSwY94KjJ4PY
JIMMY,,https://www.google.com/maps/place/JIMMY/data=!4m2!3m1!1s0x89c2598b6c14b231:0x5b24baebc67681fb,34.0528426,-118.25695060000001,231,ChIJ10b0FLLHwoARS8_u5Y-CCRY
Copper & Oak,,https://www.google.com/maps/place/Copper+%26+Oak/data=!4m2!3m1!1s0x89c25986a5ab00fb:0x1d7bf533a794e3cb,34.076398,-118.30656529999999,232,ChIJ79_9wKO4woARvHUdo6IvG1w
Brandy Library,,https://www.google.com/maps/place/Brandy+Library/data=!4m2!3m1!1s0x89c259f54436ba93:0xa914652ad4cf7c62,40.7199482,-74.00710579999999,233,ChIJk7o2RPVZwokRYnzP1CplFKk
SoHo Cigar Bar,,https://www.google.com/maps/place/SoHo+Cigar+Bar/data=!4m2!3m1!1s0x89c2598c9d509149:0x684942c754f2f,40.7236469,-74.0043524,234,ChIJSZFQnYxZwokRL091LJSEBgA
Bowery Meat Company,,https://www.google.com/maps/place/Bowery+Meat+Company/data=!4m2!3m1!1s0x89c25984fdc9c79f:0xe89d102ef3812462,40.7245665,-73.9918409,235,ChIJn8fJ_YRZwokRYiSB8y4Qneg
The Carnegie Club,,https://www.google.com/maps/place/The+Carnegie+Club/data=!4m2!3m1!1s0x89c258f9d82e547f:0x3d81afb5e2db7fa8,40.7643351,-73.979813,236,ChIJf1Qu2PlYwokRqH_b4rWvgT0
Whiskey Trader,,https://www.google.com/maps/place/Whiskey+Trader/data=!4m2!3m1!1s0x89c258f98b6c0cd5:0xa87776091ad4d7d9,40.7629501,-73.9774876,237,ChIJ1Qxsi_lYwokR2dfUGgl2d6g
Tanner Smith's,,https://www.google.com/maps/place/Tanner+Smith's/data=!4m2!3m1!1s0x89c258f8191c8b63:0xbc9aba234a420d,40.7643361,-73.9815917,238,ChIJY4scGfhYwokRDUJKI7qavAA
Sunda Kelapa,pier with old boats ,https://www.google.com/maps/place/Sunda+Kelapa/data=!4m2!3m1!1s0x2e6a1de45e4ec0a1:0x74808ea94ec1eac4,-6.1220575,106.8085808,239,ChIJuUkdIvsdai4RPTpSz_SF2pw
Namelaka - Menteng,desserts,https://www.google.com/maps/place/Namelaka+-+Menteng/data=!4m2!3m1!1s0x2e69f40a8d548dc3:0x5de7425df339b136,-6.197633199999999,106.83652819999999,240,ChIJw41UjQr0aS4RNrE5811C510
BART Jakarta,,https://www.google.com/maps/place/BART+Jakarta/data=!4m2!3m1!1s0x2e69f425ccf42741:0x6c6321ea8a60e155,-6.188492,106.824793,241,ChIJQSf0zCX0aS4RVeFgiuohY2w
Jln Jaksa,nighttime / drinking,https://www.google.com/maps/place/Jln+Jaksa/data=!4m2!3m1!1s0x2e69f42fde815105:0x67b73df24bc8e66e,-6.1851512,106.8292442,242,ChIJBVGB3i_0aS4RbubIS_I9t2c
Grand Indonesia,,https://www.google.com/maps/place/Grand+Indonesia/data=!4m2!3m1!1s0x2e69f421c2ebd463:0xccfcc89b95aaf1ae,34.0331413,-117.3155792,243,ChIJAbcQTzOt3IARWfQEzRQGoaQ
Fatahillah Square,"people-watching, calm",https://www.google.com/maps/place/Fatahillah+Square/data=!4m2!3m1!1s0x2e6a1dff3f8f5fed:0xf2536e698fceab32,-6.134669,106.8132041,244,ChIJ7V-PP_8dai4RMqvOj2luU_I
Alley of Pasar Baru (People market of Pasar Baru),Little India / market / street food,https://www.google.com/maps/place/Alley+of+Pasar+Baru+(People+market+of+Pasar+Baru)/data=!4m2!3m1!1s0x2e69f588c51c2137:0x42580ddc45acf1c9,-6.1642902,106.83399759999999,245,ChIJNyEcxYj1aS4RyfGsRdwNWEI
Wayang Museum,puppet museum,https://www.google.com/maps/place/Wayang+Museum/data=!4m2!3m1!1s0x2e6a1dff48f259ff:0xfeb6bfd7e15db853,-6.1349072,106.8124452,246,ChIJ_1nySP8dai4RU7hd4de_tv4
Flea Market,Jalan Surabaya Flea Market,https://www.google.com/maps/place/Flea+Market/data=!4m2!3m1!1s0x2e69f4150ee4b8b5:0x72b7c459e76f470a,34.0784452,-118.26200410000001,247,ChIJS6l8mc24woARh_Ajfzeol5M
Jl. Cikini Raya,street food,https://www.google.com/maps/place/Jl.+Cikini+Raya/data=!4m2!3m1!1s0x2e69f43fa6c96e93:0xb7e51f38ccfa8b61,-6.1918451,106.8385313,248,ChIJk27Jpj_0aS4RYYv6zDgf5bc
Sabang wh,Jl. H Agus Salim - street food area,https://www.google.com/maps/place/Sabang+wh/data=!4m2!3m1!1s0x2e69f53442d6c807:0x49862c58e46fce3d,5.8915007,95.32250080000001,249,ChIJ4cbSWxLGQTAR1U2MQHwQWKA
Kopi Es Tak Kie,old Chinese coffee shop famous for its coffee and a dish named Nasi campur,https://www.google.com/maps/place/Kopi+Es+Tak+Kie/data=!4m2!3m1!1s0x2e69f606b234cd91:0x68389930566cbb81,-6.1411799,106.8137921,250,ChIJkc00sgb2aS4RgbtsVjCZOGg
Pantjoran Tea House,Old Chinese tea house,https://www.google.com/maps/place/Pantjoran+Tea+House/data=!4m2!3m1!1s0x2e69f60699ba04a7:0xb7f2d64c6f50a7a9,-6.1423024999999996,106.81463409999999,251,ChIJpwS6mQb2aS4RqadQb0zW8rc
Glodok,Old Batavia / Chinatown,https://www.google.com/maps/place/Glodok/data=!4m2!3m1!1s0x2e69f60641dc0939:0xea69a046aa635dd5,-6.1448811999999995,106.813413,252,ChIJOQncQQb2aS4R1V1jqkagaeo
Kota Tua,,https://www.google.com/maps/place/Kota+Tua/data=!4m2!3m1!1s0x2e69f607534bb7c7:0x42eab7e4f2537065,-6.1350687,106.81367949999999,253,ChIJ7RcAlCrsaS4RM4GToNQSzt8
Mall Taman Anggrek,largest mall in Indonesia,https://www.google.com/maps/place/Mall+Taman+Anggrek/data=!4m2!3m1!1s0x2e69f6f50de17c9b:0xb287bf108f4ef441,-6.1786943,106.7927014,254,ChIJm3zhDfX2aS4RQfROjxC_h7I
Jakarta Cathedral,,https://www.google.com/maps/place/Jakarta+Cathedral/data=!4m2!3m1!1s0x2e69f5cef86e21ad:0x3ecfda74692fc79,-6.169328999999999,106.832678,255,ChIJrSFu-M71aS4RefySRqf97AM
Istiqlal Mosque,,https://www.google.com/maps/place/Istiqlal+Mosque/data=!4m2!3m1!1s0x2e69f5ce6cc278b3:0x92a90690b871304d,-6.17017,106.83139,256,ChIJHeC1aM71aS4RbAyE1ULw-so
Merdeka Palace,,https://www.google.com/maps/place/Merdeka+Palace/data=!4m2!3m1!1s0x2e69f51beef3a83d:0xf33dc651dadbb47d,1.5561981999999999,110.3437184,257,ChIJo-FCpg-n-zERy9Xv9c5wVKo
National Monument,,https://www.google.com/maps/place/National+Monument/data=!4m2!3m1!1s0x2e69f5d2e764b12d:0x3d2ad6e1e0e9bcc8,34.0565245,-118.2387684,258,ChIJgQpEAUXGwoARoG9LzK0GhV0
Lao Omelet Mr. Lair,,https://www.google.com/maps/place/Lao+Omelet+Mr.+Lair/data=!4m2!3m1!1s0x312f2a69a2d2b25f:0x407d0e04470bb2e4,19.8914932,102.1330823,259,ChIJX7LSomkqLzER5LILRwQOfUA
Crazy Golf Luang Prabang,,https://www.google.com/maps/place/Crazy+Golf+Luang+Prabang/data=!4m2!3m1!1s0x312f2b31fc523411:0xecdc5cabadff514a,19.882985299999998,102.14309109999999,260,ChIJETRS_DErLzERSlH_ratc3Ow
Lao Red Cross Massage and Sauna Center,,https://www.google.com/maps/place/Lao+Red+Cross+Massage+and+Sauna+Center/data=!4m2!3m1!1s0x312f2a4069c02533:0xa50307ede289b2eb,19.8865596,102.1387608,261,ChIJMyXAaUAqLzER67KJ4u0HA6U
UXO Lao Visitor Center,Secret War museum,https://www.google.com/maps/place/UXO+Lao+Visitor+Center/data=!4m2!3m1!1s0x312f2a46ea77a1c9:0x9c8e7f8a179ef377,19.8819005,102.1364152,262,ChIJyaF36kYqLzERd_OeF4p_jpw
Khopfa Mekong Cruise,,https://www.google.com/maps/place/Khopfa+Mekong+Cruise/data=!4m2!3m1!1s0x312f2bdbf0a83047:0x29b19ca6c8c3aca,19.8967253,102.14003509999999,263,ChIJRzCo8NsrLzERyjqMbMoZmwI
ST Bank,money exchange,https://www.google.com/maps/place/ST+Bank/data=!4m2!3m1!1s0x312f2a6a52c2d379:0xa3232305c6d78a3b,34.0466312,-118.26192199999998,264,ChIJf8kTR7HHwoARba3ImGh3nrY
National Museum,old kings car collection,https://www.google.com/maps/place/National+Museum/data=!4m2!3m1!1s0x312f2a6a328c6c99:0x336269f4807f9366,34.0496239,-118.2385887,265,ChIJpQpNmkfGwoARPgqyi4UHWkM
Wat Sensoukharam,Alms giving,https://www.google.com/maps/place/Wat+Sensoukharam/data=!4m2!3m1!1s0x312f2a1342ba3853:0x4692c76a1775a5f2,19.895385599999997,102.1416538,266,ChIJUzi6QhMqLzER8qV1F2rHkkY
Wat Xiengthong,,https://www.google.com/maps/place/Wat+Xiengthong/data=!4m2!3m1!1s0x312f2a12ffc51c6b:0x1c5835a5bac7c503,19.8975293,102.14315719999999,267,ChIJaxzF_xIqLzERA8XHuqU1WBw
Carpe Diem,,https://www.google.com/maps/place/Carpe+Diem/data=!4m2!3m1!1s0x3128d216ba9c50dd:0x5608ff8527e5e83e,34.0319068,-118.12926279999999,268,ChIJpz220cPPwoAR2bVktccVlAk
Phousi Hill,,https://www.google.com/maps/place/Phousi+Hill/data=!4m2!3m1!1s0x312f2a6a667fef0b:0xfd9af2125d7a76fc,19.8901716,102.1370555,269,ChIJC-9_ZmoqLzER_HZ6XRLymv0
Tamarind,"tasting platter, barbecued marinated buffalo",https://www.google.com/maps/place/Tamarind/data=!4m2!3m1!1s0x312f2a46a3275ae9:0x91b92a2b2bcb8bf5,34.0352287,-118.2649505,270,ChIJVVWlj8XHwoARYJTF7N9qn2A
Icon Klub,cocktail bar,https://www.google.com/maps/place/Icon+Klub/data=!4m2!3m1!1s0x312f2a6b3e6dc5b3:0xb756bd26e659d573,19.892978199999998,102.13899339999999,271,ChIJs8VtPmsqLzERc9VZ5ia9Vrc
Redbul Sport bar,"LGBT, happy hour",https://www.google.com/maps/place/Redbul+Sport+bar/data=!4m2!3m1!1s0x312f2a6a9ae222b7:0x637dd386fd10cdec,34.025583,-118.2773206,272,ChIJawC-cufHwoAREP1nD97S9ys
Dyen Sabai Restaurant,"order platter, Mok Pa, Or Lam",https://www.google.com/maps/place/Dyen+Sabai+Restaurant/data=!4m2!3m1!1s0x312f2a6b2cee775b:0x16084a9d928451d4,19.8924091,102.14076039999999,273,ChIJW3fuLGsqLzER1FGEkp1KCBY
Big Tree Cafe,"Lao omelet, Yum Salat",https://www.google.com/maps/place/Big+Tree+Cafe/data=!4m2!3m1!1s0x312f2a6c8255c9ff:0xc8871d6175ebabda,28.4364957,77.13233439999999,274,ChIJl_cDBvUZDTkRMuZdb5KB0lg
Tim Papaya Salad Restaurant,,https://www.google.com/maps/place/Tim+Papaya+Salad+Restaurant/data=!4m2!3m1!1s0x312f2a6cb1d964cf:0x819bf7f14e544823,19.895499299999997,102.1399266,275,ChIJz2TZsWwqLzERI0hUTvH3m4E
Night Market,,https://www.google.com/maps/place/Night+Market/data=!4m2!3m1!1s0x312f2a6b010a5541:0x6814a3460ad3cd10,34.038643199999996,-118.2587591,276,ChIJ91dj8CbJwoARjfu-MWrjtes
Khao Soi Noodle Shop,get here early,https://www.google.com/maps/place/Khao+Soi+Noodle+Shop/data=!4m2!3m1!1s0x312f2a135d07c9e3:0x544ed385e246b57c,34.0978315,-118.31836739999999,277,ChIJ92lOKka_woAR4rx2fnKC2Tw
Luang prabang Sunrise Riverside Pool Hostel,social hostel,https://www.google.com/maps/place/Luang+prabang+Sunrise+Riverside+Pool+Hostel/data=!4m2!3m1!1s0x312f2b9acf7eda69:0xc1c7bbb4069ce8b3,19.888773,102.139117,278,ChIJadp-z5orLzERs-icBrS7x8E
Le Calao restaurant,,https://www.google.com/maps/place/Le+Calao+restaurant/data=!4m2!3m1!1s0x312f2a133b30cb05:0xe48ab138b480994f,19.8968187,102.1413299,279,ChIJBcswOxMqLzERT5mAtDixiuQ
Siridel Luang Prabang,,https://www.google.com/maps/place/Siridel+Luang+Prabang/data=!4m2!3m1!1s0x312f2b7e1b42658b:0x30615d699f760ecc,19.889014,102.13222979999999,280,ChIJi2VCG34rLzERzA52n2ldYTA
Anousay Motorbike Rental,manual motorbikes,https://www.google.com/maps/place/Anousay+Motorbike+Rental/data=!4m2!3m1!1s0x312f2beaade6e61d:0x38f05c21d5f82b97,19.888698599999998,102.1380331,281,ChIJHebmreorLzERlyv41SFc8Dg
Mekong Delight NUT POB,Bourdain went here in Parts Unknown,https://www.google.com/maps/place/Mekong+Delight+NUT+POB/data=!4m2!3m1!1s0x312f2bc1443f7ca5:0xd35ec25dcb95310e,19.8965837,102.1401071,282,ChIJpXw_RMErLzERDjGVy13CXtM
Pak Ou Caves,,https://www.google.com/maps/place/Pak+Ou+Caves/data=!4m2!3m1!1s0x312ed1ab109c9ce5:0x106ae12237eb91fa,20.0485582,102.2113255,283,ChIJ5ZycEKvRLjER-pHrNyLhahA
"Tat Kuang Si Bear Rescue Centre, Free the Bears",,"https://www.google.com/maps/place/Tat+Kuang+Si+Bear+Rescue+Centre,+Free+the+Bears/data=!4m2!3m1!1s0x3128d2113e50eb8b:0x72f89eeab58835d6",19.7510022,101.995943,284,ChIJi-tQPhHSKDER1jWIteqe-HI
Tat Sae Waterfalls,,https://www.google.com/maps/place/Tat+Sae+Waterfalls/data=!4m2!3m1!1s0x312f28e5f33ebef7:0x54c2c28b738896bc,19.8437755,102.2199984,285,ChIJ974-8-UoLzERvJaIc4vCwlQ
Big Brother Mouse,,https://www.google.com/maps/place/Big+Brother+Mouse/data=!4m2!3m1!1s0x312f2a135153760f:0x5f17261c1396326b,19.8950201,102.14068209999999,286,ChIJD3ZTURMqLzERazKWExwmF18
Kuang Si Waterfall,,https://www.google.com/maps/place/Kuang+Si+Waterfall/data=!4m2!3m1!1s0x3128d216c82caa13:0xe1f331979b7f211f,19.749572999999998,101.99318389999999,287,ChIJE6osyBbSKDERHyF_m5cx8-E
Laos Buffalo Dairy,,https://www.google.com/maps/place/Laos+Buffalo+Dairy/data=!4m2!3m1!1s0x3128d3d0b281c70d:0x6d6f477541d021f3,19.793293,101.98648899999999,288,ChIJDceBstDTKDER8yHQQXVHb20
Trinity Alps,,https://www.google.com/maps/place/Trinity+Alps/data=!4m2!3m1!1s0x54d23b46bdae16ef:0xbe582398cdcb84f7,41.000417999999996,-123.04836829999998,289,ChIJ7xauvUY70lQR94TLzZgjWL4
Burney Falls,,https://www.google.com/maps/place/Burney+Falls/data=!4m2!3m1!1s0x54cda79191802799:0x605002b233078792,41.012057999999996,-121.65177959999998,290,ChIJmSeAkZGnzVQRkocHM7ICUGA
Humboldt Redwoods State Park,,https://www.google.com/maps/place/Humboldt+Redwoods+State+Park/data=!4m2!3m1!1s0x54d463c73284e3b3:0x3716989f535a3fa,40.3146515,-123.97768579999999,291,ChIJs-OEMsdj1FQR-qM19YlpcQM
Redwood National and State Parks,,https://www.google.com/maps/place/Redwood+National+and+State+Parks/data=!4m2!3m1!1s0x54d06636f5417fa5:0x36cf3266953b5f8e,41.401715599999996,-124.04171099999999,292,ChIJpX9B9TZm0FQRjl87lWYyzzY
Glass Beach,,https://www.google.com/maps/place/Glass+Beach/data=!4m2!3m1!1s0x8080353c794b7fd1:0x88d3934aef840d2c,39.4526063,-123.8134991,293,ChIJ0X9LeTw1gIARLA2E70qT04g
Lassen Volcanic National Park,,https://www.google.com/maps/place/Lassen+Volcanic+National+Park/data=!4m2!3m1!1s0x809d5607c14138bf:0x8f34d8a77a666742,40.497659999999996,-121.4206552,294,ChIJvzhBwQdWnYARQmdmeqfYNI8
Lava Beds National Monument,,https://www.google.com/maps/place/Lava+Beds+National+Monument/data=!4m2!3m1!1s0x54cea67ae59ba40d:0xd388a0ca3c885cfb,41.7750276,-121.50678739999998,295,ChIJDaSb5XqmzlQR-1yIPMqgiNM
Fern Canyon,,https://www.google.com/maps/place/Fern+Canyon/data=!4m2!3m1!1s0x54d10175fe7e5521:0x72ff3bae1b0a4ab9,41.4016482,-124.0650093,296,ChIJIVV-_nUB0VQRuUoKG647_3I
Mendocino,,https://www.google.com/maps/place/Mendocino/data=!4m2!3m1!1s0x8081b26b3c56eb33:0xd60f97f241c0b33b,39.307674399999996,-123.7994591,297,ChIJM-tWPGuygYARO7PAQfKXD9Y
Secret Beach,,https://www.google.com/maps/place/Secret+Beach/data=!4m2!3m1!1s0x54dabc02bc36e833:0xf38c954c78c8104d,34.047608,-118.95265330000001,298,ChIJjb6x-dU96IARI1bYZyH8u84
Natural Bridges,,https://www.google.com/maps/place/Natural+Bridges/data=!4m2!3m1!1s0x54dabc1af1f96d77:0x3687968a5e4b70db,36.284982299999996,-116.76560119999999,299,ChIJQXh-4usYx4ARTNNOvYq9PeQ
Samuel H. Boardman State Scenic Corridor,,https://www.google.com/maps/place/Samuel+H.+Boardman+State+Scenic+Corridor/data=!4m2!3m1!1s0x54dabcf7e650e5b5:0x1049c3ce6d33edfe,42.1575318,-124.36140819999999,300,ChIJteVQ5ve82lQR_u0zbc7DSRA
Nong Khiaw Viewpoint,,https://www.google.com/maps/place/Nong+Khiaw+Viewpoint/data=!4m2!3m1!1s0x312e832db0ac37e7:0x82e728214801d212,20.5707695,102.6255511,301,ChIJ5zessC2DLjEREtIBSCEo54I
Kohchang Moterbike for rent,160cc scooters,https://www.google.com/maps/place/Kohchang+Moterbike+for+rent/data=!4m2!3m1!1s0x3104111d208a7f61:0x54a51b7678c2b9ed,12.1348296,102.2759562,302,ChIJGZ4WPxkTBDERfXUDHizjWvU
3643 Grim Ave,San Diego Airbnb,https://www.google.com/maps/place/3643+Grim+Ave/data=!4m2!3m1!1s0x80d954f54077f7c1:0x5124104dbdc0e17e,32.7445776,-117.1279689,303,ChIJwfd3QPVU2YARfuHAvU0QJFE
6004 Paseo Delicias,Rancho Santa Fe Cars & Coffee,https://www.google.com/maps/place/6004+Paseo+Delicias/data=!4m2!3m1!1s0x80dc09966392d9fb:0x425d9a09ab80b3d6,33.019847999999996,-117.20397000000001,304,ChIJd8XaZZYJ3IARKd1jDsL2dHk
Elfin Forest Recreational Reserve,,https://www.google.com/maps/place/Elfin+Forest+Recreational+Reserve/data=!4m2!3m1!1s0x80dbf5b9c1f02c01:0x9fb4e6c19a0eb977,33.0865796,-117.1450871,305,ChIJASzwwbn124ARd7kOmsHmtJ8
Free Flight,,https://www.google.com/maps/place/Free+Flight/data=!4m2!3m1!1s0x80dc08cdb20cff3b:0x97a4bd2c1485837b,32.970057,-117.264117,306,ChIJO_8Mss0I3IARe4OFFCy9pJc
Yiddishland California,,https://www.google.com/maps/place/Yiddishland+California/data=!4m2!3m1!1s0x80dc03678a8053e1:0x3ed1b362dde91240,32.8472351,-117.27277160000001,307,ChIJ4VOAimcD3IARQBLp3WKz0T4
San Diego Model Railroad Museum,,https://www.google.com/maps/place/San+Diego+Model+Railroad+Museum/data=!4m2!3m1!1s0x80d954963614a257:0x4ccfb63dd5bae9b,32.73111,-117.1486199,308,ChIJV6IUNpZU2YARm65b3WP7zAQ
Sunset Cliffs Natural Park,,https://www.google.com/maps/place/Sunset+Cliffs+Natural+Park/data=!4m2!3m1!1s0x80deabc34865ae03:0xea49f2d4b5e09115,32.715915,-117.25516789999999,309,ChIJA65lSMOr3oARFZHgtdTySeo
The Grand Tea Room,,https://www.google.com/maps/place/The+Grand+Tea+Room/data=!4m2!3m1!1s0x80dbf503864c5d51:0x5690a6e8354e612b,33.12102,-117.082298,310,ChIJUV1MhgP124ARK2FONeimkFY
Gaslamp Quarter,,https://www.google.com/maps/place/Gaslamp+Quarter/data=!4m2!3m1!1s0x80d95359b85576cd:0x8707ade908cda6ea,32.7114267,-117.1599305,311,ChIJzXZVuFlT2YAR6qbNCOmtB4c
Little Italy,,https://www.google.com/maps/place/Little+Italy/data=!4m2!3m1!1s0x80d954b23b548949:0x243cdcc47bf9d4b8,34.1017387,-118.33240219999999,312,ChIJI1iQZDu_woARRgME0kt9q-Y
MooTime Creamery,,https://www.google.com/maps/place/MooTime+Creamery/data=!4m2!3m1!1s0x80deacc95dd16785:0xdd060e9086656342,32.6851103,-117.17954770000001,313,ChIJhWfRXcms3oARQmNlhpAOBt0
Torrey Pines State Natural Reserve,,https://www.google.com/maps/place/Torrey+Pines+State+Natural+Reserve/data=!4m2!3m1!1s0x80dc0667ac55946b:0x87b6a72540002fb1,32.9268576,-117.25939119999998,314,ChIJa5RVrGcG3IARsS8AQCWntoc
La Jolla Cove,,https://www.google.com/maps/place/La+Jolla+Cove/data=!4m2!3m1!1s0x80dc03fea876e5eb:0x90ff653c28a7c617,32.8503895,-117.27294350000001,315,ChIJ6-V2qP4D3IARF8anKDxl_5A
Balboa Park,,https://www.google.com/maps/place/Balboa+Park/data=!4m2!3m1!1s0x80d95496fa70cb03:0xedf30b3cb015f6c4,32.734147899999996,-117.14455299999997,316,ChIJA8tw-pZU2YARxPYVsDwL8-0
San Diego Zoo,,https://www.google.com/maps/place/San+Diego+Zoo/data=!4m2!3m1!1s0x80d95495497f80c9:0x5df0f4372635e247,32.7360353,-117.1509849,317,ChIJyYB_SZVU2YARR-I1Jjf08F0
USS Midway Museum,,https://www.google.com/maps/place/USS+Midway+Museum/data=!4m2!3m1!1s0x80d954ab2a6e80c1:0xfbb78930404553b2,32.7137398,-117.17512649999999,318,ChIJwYBuKqtU2YARslNFQDCJt_s
Maenam Viewpoint,,https://www.google.com/maps/place/Maenam+Viewpoint/data=!4m2!3m1!1s0x3054f9faffa1362d:0xd0e2ddf9a7ae3022,9.5872026,99.98273189999999,319,ChIJLTah__r5VDARIjCup_nd4tA
Baan Tai Beach,,https://www.google.com/maps/place/Baan+Tai+Beach/data=!4m2!3m1!1s0x3054f9235ccd0e1b:0x7a8fa65e7bab2673,9.583829399999999,99.9695208,320,ChIJGw7NXCP5VDARcyare16mj3o
Tree Bridge Zipline,,https://www.google.com/maps/place/Tree+Bridge+Zipline/data=!4m2!3m1!1s0x3054f7136f06b617:0x49ce4ea25199a608,9.5358857,99.99095439999999,321,ChIJF7YGbxP3VDARCKaZUaJOzkk
Ran Lan Saka restaurant,local curry,https://www.google.com/maps/place/Ran+Lan+Saka+restaurant/data=!4m2!3m1!1s0x3054f75477600779:0x34be62805e79a0b2,9.5737981,99.9872996,322,ChIJeQdgd1T3VDARsqB5XoBivjQ
Si Khao Night Market,,https://www.google.com/maps/place/Si+Khao+Night+Market/data=!4m2!3m1!1s0x3054f052d05b7017:0xd90fb0c17c94fea0,9.533985999999999,100.0448828,323,ChIJF3Bb0FLwVDARoP6UfMGwD9k
Choengmon Beach,,https://www.google.com/maps/place/Choengmon+Beach/data=!4m2!3m1!1s0x3054effe30c54f11:0x4c4fec384fb53a43,9.5737677,100.0806738,324,ChIJEU_FMP7vVDARQzq1TzjsT0w
Big Stone Hands,,https://www.google.com/maps/place/Big+Stone+Hands/data=!4m2!3m1!1s0x3054f35c0aff5115:0x62699787d881549,9.477979999999999,99.9956619,325,ChIJFVH_ClzzVDARSRWIfXiZJgY
Khun Si View point,,https://www.google.com/maps/place/Khun+Si+View+point/data=!4m2!3m1!1s0x3054f118276f9b5d:0x909f271d41639a76,9.5229877,100.0154622,326,ChIJXZtvJxjxVDARdppjQR0nn5A
Panoramic View Samui,,https://www.google.com/maps/place/Panoramic+View+Samui/data=!4m2!3m1!1s0x3054f134203da18f:0x459a849b76c4f38f,9.513168900000002,100.0232381,327,ChIJj6E9IDTxVDARj_PEdpuEmkU
Haad Bang Po,,https://www.google.com/maps/place/Haad+Bang+Po/data=!4m2!3m1!1s0x3054f787cde0be93:0x4749bd102cb95150,9.5777279,99.9361132,328,ChIJk77gzYf3VDARUFG5LBC9SUc
Krua Bophut,,https://www.google.com/maps/place/Krua+Bophut/data=!4m2!3m1!1s0x3054f08e7f1933cd:0x12632d2fddfc864e,9.560757599999999,100.0282371,329,ChIJzTMZf47wVDARTob83S8tYxI
Thongson Beach,,https://www.google.com/maps/place/Thongson+Beach/data=!4m2!3m1!1s0x3054faae0125d049:0x80ad3930436300b7,9.586580099999999,100.0756578,330,ChIJSdAlAa76VDARtwBjQzA5rYA
Jungle Sunset View,,https://www.google.com/maps/place/Jungle+Sunset+View/data=!4m2!3m1!1s0x3054f42488333fa1:0x7a11e5c3c2accff0,9.501420999999999,100.0248366,331,ChIJoT8ziCT0VDAR8M-swsPlEXo
Chaweng Night Market,Thursday,https://www.google.com/maps/place/Chaweng+Night+Market/data=!4m2!3m1!1s0x3054f1354d39fac9:0x9edc988b0b426859,9.5274155,100.0594618,332,ChIJvVooH8rxVDAREzT3I7zohu0
Na Muang Waterfalls,,https://www.google.com/maps/place/Na+Muang+Waterfalls/data=!4m2!3m1!1s0x3054f3cdae5882b3:0xf3274599c9478bf1,9.4668075,99.98377219999999,333,ChIJs4JYrs3zVDAR8YtHyZlFJ_M
Samui Karting,,https://www.google.com/maps/place/Samui+Karting/data=!4m2!3m1!1s0x3054f3539d425a2b:0xa9c222fa632ddc85,9.5593459,100.0245255,334,ChIJK1pCnVPzVDARhdwtY_oiwqk
Crystal Beach,Silver Beach. rock formations,https://www.google.com/maps/place/Crystal+Beach/data=!4m2!3m1!1s0x3054f30ae1bda82b:0x2c666faad2f2667f,33.574988399999995,-117.84217450000001,335,ChIJKTzIA9Ph3IARo-c7_CEubxU
Night Market Fishermans Village,Mon/Wed/Fri night market,https://www.google.com/maps/place/Night+Market+Fishermans+Village/data=!4m2!3m1!1s0x3054f08dcaa7965f:0x9e0db2da6afb9aba,9.558458199999999,100.0313766,336,ChIJX5anyo3wVDARupr7atqyDZ4
Lamai Night Plaza,,https://www.google.com/maps/place/Lamai+Night+Plaza/data=!4m2!3m1!1s0x3054f316b9809b73:0xfe1da91058bc7cb3,9.4646809,100.0439578,337,ChIJc5uAuRbzVDARs3y8WBCpHf4
Lamai Night Market,,https://www.google.com/maps/place/Lamai+Night+Market/data=!4m2!3m1!1s0x3054f34258acfb01:0x99b60f577d88837f,9.4689006,100.0478567,338,ChIJAfusWELzVDARf4OIfVcPtpk
Wat Laem Suwannaram,,https://www.google.com/maps/place/Wat+Laem+Suwannaram/data=!4m2!3m1!1s0x3054f00ed4e7f155:0xb82b763df8a3f48,9.5718024,100.06652290000001,339,ChIJVfHn1A7wVDARSD-K32O3ggs
Cabaret Paris Follies,,https://www.google.com/maps/place/Cabaret+Paris+Follies/data=!4m2!3m1!1s0x3054f1ccaad1b833:0x3a543e17e821f113,9.5321532,100.064067,340,ChIJM7jRqszxVDARE_Eh6Bc-VDo
Wat Khunaram (Phra Wihan Luang Por Daeng),,https://www.google.com/maps/place/Wat+Khunaram+(Phra+Wihan+Luang+Por+Daeng)/data=!4m2!3m1!1s0x3054f382e7624b11:0xc4da5af340107fd,9.4495305,100.00036689999999,341,ChIJEUti54LzVDAR_QcBNK-lTQw
Wat Plai Laem,,https://www.google.com/maps/place/Wat+Plai+Laem/data=!4m2!3m1!1s0x3054f008cc4ecd41:0xcf50277ac1684bbf,9.5713472,100.0671156,342,ChIJQc1OzAjwVDARv0towXonUM8
Guan Yu Shrine,,https://www.google.com/maps/place/Guan+Yu+Shrine/data=!4m2!3m1!1s0x3054f30804635f9d:0xf87a34c886a27723,9.4451659,100.0248297,343,ChIJnV9jBAjzVDARI3eihsg0evg
Peter Pan Wine Farm,,https://www.google.com/maps/place/Peter+Pan+Wine+Farm/data=!4m2!3m1!1s0x3054f470eab8074f:0xe26f0530be5faefa,9.455247,99.98517989999999,344,ChIJTwe46nD0VDAR-q5fvjAFb-I
Wat Phra Chedi Laem So,,https://www.google.com/maps/place/Wat+Phra+Chedi+Laem+So/data=!4m2!3m1!1s0x3054f4c9d346f833:0xa4b468671e93bb71,9.411721,99.9690353,345,ChIJM_hG08n0VDARcbuTHmdotKQ
Viewpoint beach and ocean,,https://www.google.com/maps/place/Viewpoint+beach+and+ocean/data=!4m2!3m1!1s0x3054f784ca179ec5:0x4158df9553863db8,33.5848991,-117.8352413,346,ChIJQZ-J-l7h3IARdhlT7lHlWLk
Big Buddha Temple (Wat Phra Yai),,https://www.google.com/maps/place/Big+Buddha+Temple+(Wat+Phra+Yai)/data=!4m2!3m1!1s0x3054f00c9c0e271b:0xdb258af4304486e0,9.5707294,100.05991499999999,347,ChIJGycOnAzwVDAR4IZEMPSKJds
Maenam Beach,,https://www.google.com/maps/place/Maenam+Beach/data=!4m2!3m1!1s0x3054f0ab2e8b6d37:0xfbb22a800193f3c9,9.570046,100.00034699999999,348,ChIJgU34p6_wVDARVjhnzgmFOfA
Lad Koh View Point,,https://www.google.com/maps/place/Lad+Koh+View+Point/data=!4m2!3m1!1s0x3054f1f29763f2fb:0x8e1e422514d06547,9.499005499999999,100.0599805,349,ChIJ-_Jjl_LxVDARR2XQFCVCHo4
Buddha's Footprint,,https://www.google.com/maps/place/Buddha's+Footprint/data=!4m2!3m1!1s0x3054f36f20f42287:0x5474d344508089bc,9.4317128,100.00394159999999,350,ChIJhyL0IG_zVDARvImAUETTdFQ
Grandfather and Grandmother Rocks (Hin Ta Hin Yai),,https://www.google.com/maps/place/Grandfather+and+Grandmother+Rocks+(Hin+Ta+Hin+Yai)/data=!4m2!3m1!1s0x3054f253bc2af38b:0xdc62233d2a2b94c9,9.452187,100.03953870000001,351,ChIJi_MqvFPyVDARyZQrKj0jYtw
Tarnim Magic Garden,,https://www.google.com/maps/place/Tarnim+Magic+Garden/data=!4m2!3m1!1s0x3054f3f904f67edf:0x3b5244664a182f71,9.482904099999999,99.9944804,352,ChIJ3372BPnzVDARcS8YSmZEUjs
Lamai Viewpoint & Valentine Stone,,https://www.google.com/maps/place/Lamai+Viewpoint+%26+Valentine+Stone/data=!4m2!3m1!1s0x3054f3b2d1190b93:0xf5a822df62d834bf,9.458672,100.03545799999999,353,ChIJkwsZ0bLzVDARvzTYYt8iqPU
COSI Samui Chaweng Beach,,https://www.google.com/maps/place/COSI+Samui+Chaweng+Beach/data=!4m2!3m1!1s0x3054f1cae643a3cb:0x4a75d722755651f8,9.530272799999999,100.06036890000001,354,ChIJy6ND5srxVDAR-FFWdSLXdUo
Sunset views of mountains,,https://www.google.com/maps/place/Sunset+views+of+mountains/data=!4m2!3m1!1s0x3125933ee6cb5731:0xf5a1e6cd77190b6d,34.216455499999995,-117.6893341,355,ChIJ05T0k6c7w4ARo2dOWN3Ny5A
Wat Pho Karm Chai Mong Kol,,https://www.google.com/maps/place/Wat+Pho+Karm+Chai+Mong+Kol/data=!4m2!3m1!1s0x3125f4c88eeaa383:0xffa4e4cf6d919e01,19.0772737,102.4287197,356,ChIJg6Pqjsj0JTERAZ6Rbc_kpP8
Mr. Ta Motorbike Rental,,https://www.google.com/maps/place/Mr.+Ta+Motorbike+Rental/data=!4m2!3m1!1s0x312593396380de2f:0xad87ffa1e2c39838,33.807769400000005,-118.1651031,357,ChIJT18XZs4z3YAROZ-PSb09S0k
Blue Lagoon 3,,https://www.google.com/maps/place/Blue+Lagoon+3/data=!4m2!3m1!1s0x3125ef43b964f507:0x89bd32f7243924f3,18.942363699999998,102.3368676,358,ChIJB_VkuUPvJTER8yQ5JPcyvYk
Phapoungkham cave and viewpoint,,https://www.google.com/maps/place/Phapoungkham+cave+and+viewpoint/data=!4m2!3m1!1s0x3125edbb6b9e0e13:0x20e8f4904b3c369a,18.9282941,102.37990939999999,359,ChIJEw6ea7vtJTERmjY8S5D06CA
Pha Ngern View Point,,https://www.google.com/maps/place/Pha+Ngern+View+Point/data=!4m2!3m1!1s0x3125ed1f3b44e805:0xbbade02c015659e6,18.916434,102.4130347,360,ChIJBehEOx_tJTER5llWASzgrbs
SAKURA BAR,,https://www.google.com/maps/place/SAKURA+BAR/data=!4m2!3m1!1s0x312592cf681de549:0x916b66c4e4e51c09,33.9919313,-118.42244029999999,361,ChIJ46_3-HG6woARcsGxXVJhqoo
Phapoak Mountain,,https://www.google.com/maps/place/Phapoak+Mountain/data=!4m2!3m1!1s0x312593ac2b11bbcb:0x23f5ac5aefa9c612,18.9299721,102.43854580000001,362,ChIJy7sRK6yTJTEREsap71qs9SM
Wat That,,https://www.google.com/maps/place/Wat+That/data=!4m2!3m1!1s0x312592c87e2671a1:0x8e8ce310e4b9e42c,34.2206597,-118.4148821,363,ChIJ_YC-7LeWwoAR1WlzGnUnKMs
Ban Pha Tang,,https://www.google.com/maps/place/Ban+Pha+Tang/data=!4m2!3m1!1s0x3125f4c65e6aeaaf:0x3cccb2a6ed0305a9,19.07835,102.424004,364,ChIJr-pqXsb0JTERqQUD7aayzDw
Organic Farm Restaurant & Guesthouse,,https://www.google.com/maps/place/Organic+Farm+Restaurant+%26+Guesthouse/data=!4m2!3m1!1s0x31258d56aec843a5:0x9da71cb5c9aa34f6,34.0474434,-118.490448,365,ChIJx3qVjFWjwoARinAuM84NFMI
Tham Chang,,https://www.google.com/maps/place/Tham+Chang/data=!4m2!3m1!1s0x312592d5f26479ff:0x7cfb954a15e1b247,18.910081599999998,102.4422184,366,ChIJ_3lk8tWSJTERR7LhFUqV-3w
Blue Lagoon 1 and Phu Kham Cave Vang Vieng,,https://www.google.com/maps/place/Blue+Lagoon+1+and+Phu+Kham+Cave+Vang+Vieng/data=!4m2!3m1!1s0x3125ed08fb9bee9f:0x7e1af95489eccabc,18.9263038,102.39545439999999,367,ChIJn-6b-wjtJTERvMrsiVT5Gn4
Nam Xay Viewpoint,,https://www.google.com/maps/place/Nam+Xay+Viewpoint/data=!4m2!3m1!1s0x3125eda2df94820b:0xe64ae2d4c26c371c,18.923599199999998,102.3869781,368,ChIJC4KU36LtJTERHDdswtTiSuY
nana backpacker vang vieng,,https://www.google.com/maps/place/nana+backpacker+vang+vieng/data=!4m2!3m1!1s0x312592cfec0f2663:0x8a11326f10cece5a,18.9217495,102.4484738,369,ChIJYyYP7M-SJTERWs7OEG8yEYo
Lao Valhalla Bungalows & Restaurant,,https://www.google.com/maps/place/Lao+Valhalla+Bungalows+%26+Restaurant/data=!4m2!3m1!1s0x3125ed2dc3e33e73:0xfa1a69d6f0773f0a,18.9198,102.4332664,370,ChIJcz7jwy3tJTERCj938NZpGvo
Red Planet Bangkok Asok,,https://www.google.com/maps/place/Red+Planet+Bangkok+Asok/data=!4m2!3m1!1s0x30e29ee250c0e583:0x22293178145fa0b2,13.7354235,100.56016919999999,371,ChIJg-XAUOKe4jARsqBfFHgxKSI
Health Land Spa & Massage Asoke,,https://www.google.com/maps/place/Health+Land+Spa+%26+Massage+Asoke/data=!4m2!3m1!1s0x30e29ee4f4503d37:0xbc69812590525a4c,13.7406819,100.56087500000001,372,ChIJNz1Q9OSe4jARTFpSkCWBabw
Healthy Massage Sukhumvit 19,,https://www.google.com/maps/place/Healthy+Massage+Sukhumvit+19/data=!4m2!3m1!1s0x4dba88cfc38cec7b:0x3e0bde8d41c54356,13.7391111,100.56011230000001,373,ChIJe-yMw8-Iuk0RVkPFQY3eCz4
Wanida Massage,,https://www.google.com/maps/place/Wanida+Massage/data=!4m2!3m1!1s0x30e29f8e2ba8465b:0xcd0f4501c9f3dc60,13.737676299999999,100.5628242,374,ChIJBXf9LyOf4jARY2efo2fJ_Q4
Muang Ngoy,,https://www.google.com/maps/place/Muang+Ngoy/data=!4m2!3m1!1s0x312c292ef02df651:0x24a428ec91e91ba3,20.7089805,102.67545469999999,375,ChIJUfYt8C4pLDERoxvpkewopCQ
Sapun Fried Chicken,,https://www.google.com/maps/place/Sapun+Fried+Chicken/data=!4m2!3m1!1s0x30da3a84dafb5dfd:0xd05d32263322dde7,34.0314763,-118.29105220000001,376,ChIJhSllHq_HwoARKNbfVHgtHtk
Lang Mor Night Market,,https://www.google.com/maps/place/Lang+Mor+Night+Market/data=!4m2!3m1!1s0x30da3a71e974aa7b:0x2bf903aad448eb24,18.792797,98.95500179999999,377,ChIJe6p06XE62jARJOtI1KoD-Ss
Mr. Mechanic Shop No.2,,https://www.google.com/maps/place/Mr.+Mechanic+Shop+No.2/data=!4m2!3m1!1s0x30da3a96802164b3:0x4fabedb393854575,18.790230599999997,98.9932552,378,ChIJs2QhgJY62jARdUWFk7Ptq08
Warorot Market (Kad Luang),,https://www.google.com/maps/place/Warorot+Market+(Kad+Luang)/data=!4m2!3m1!1s0x30da3b3a2f7c7151:0x24c07f18fcb56c40,18.789849399999998,99.00099639999999,379,ChIJUXF8Lzo72jARQGy1_Bh_wCQ
Chiang Mai Provincial Police Region 5,,https://www.google.com/maps/place/Chiang+Mai+Provincial+Police+Region+5/data=!4m2!3m1!1s0x30da3aaf778aaf0b:0x73a8ec8f5cea6a40,18.7600378,98.9989698,380,ChIJk1CqbOEv2jARPi9AZkawLbY
Ann Laundry Service,,https://www.google.com/maps/place/Ann+Laundry+Service/data=!4m2!3m1!1s0x30da3aa40c29ae8f:0xca61a4a7943a54d2,34.0780187,-118.12617910000002,381,ChIJfZOxRjjFwoARcecIM4EVsKk
Khun Kae's Juice Bar,,https://www.google.com/maps/place/Khun+Kae's+Juice+Bar/data=!4m2!3m1!1s0x30da3abd4dbf1451:0x4321a84925371b6,18.7928242,98.9916197,382,ChIJURS_Tb062jARtnFTkoQaMgQ
Northlands Restaurant,,https://www.google.com/maps/place/Northlands+Restaurant/data=!4m2!3m1!1s0x30da3abd32129dd3:0xa76e1c14b2aee908,49.3216063,-122.980454,383,ChIJT1cRE2d6hlQReUvQffiGsEs
SP Chicken,,https://www.google.com/maps/place/SP+Chicken/data=!4m2!3m1!1s0x30da3a9b670a8b3b:0x39c86892f1c4fdc8,18.78765,98.98119439999999,384,ChIJO4sKZ5s62jARyP3E8ZJoyDk
Thapae East,music venue,https://www.google.com/maps/place/Thapae+East/data=!4m2!3m1!1s0x30da3aa46abcafc5:0x3ab1f4eaa75168ab,18.7882468,99.0007406,385,ChIJxa-8aqQ62jARq2hRp-r0sTo
Nong Khiaw,2-day hikes,https://www.google.com/maps/place/Nong+Khiaw/data=!4m2!3m1!1s0x312e9cd0671edbc7:0xf6b6b95e9aa404f0,20.5710354,102.6115749,386,ChIJx9seZ9CcLjER8ASkml65tvY
THUUB Bar,cocktails,https://www.google.com/maps/place/THUUB+Bar/data=!4m2!3m1!1s0x30da3b63497fec61:0xfb09ce4899fef680,18.792123699999998,98.99392700000001,387,ChIJYex_SWM72jARgPb-mUjOCfs
The Signature Hotel @ Tha Phae,,https://www.google.com/maps/place/The+Signature+Hotel+@+Tha+Phae/data=!4m2!3m1!1s0x30da3aa4784da21d:0x807ed7e8c93e0274,18.7882722,98.9966742,388,ChIJHaJNeKQ62jARdAI-yejXfoA
Deejai Pai,hostel with chill people,https://www.google.com/maps/place/Deejai+Pai/data=!4m2!3m1!1s0x30da8049c6e34407:0x777152f847690aef,19.3470975,98.44805269999999,389,ChIJB0TjxkmA2jAR7wppR_hScXc
Huen Muan Jai,Northern Thai,https://www.google.com/maps/place/Huen+Muan+Jai/data=!4m2!3m1!1s0x30da3a8c183393ed:0x6bad4b8a8337d731,18.7998212,98.9754871,390,ChIJ7ZMzGIw62jARMdc3g4pLrWs
Sabai De Ka Massage School,,https://www.google.com/maps/place/Sabai+De+Ka+Massage+School/data=!4m2!3m1!1s0x30da3aa248c90237:0x50e16b44e0c7463d,18.7886754,98.9928939,391,ChIJNwLJSKI62jARPUbH4ERr4VA
Zoe in Yellow,meet other travelers and expats,https://www.google.com/maps/place/Zoe+in+Yellow/data=!4m2!3m1!1s0x30da3a987446bbc5:0x9e3fb1d9821ccd95,18.7909067,98.99043189999999,392,ChIJxbtGdJg62jARlc0cgtmxP54
PUMP FITNESS,,https://www.google.com/maps/place/PUMP+FITNESS/data=!4m2!3m1!1s0x30da3b0455aedd45:0x7b2a3f76e3545eb2,33.8524104,-118.3902648,393,ChIJSx740p20woARnMA15SG3-eQ
Exclusive Fitness Gym,,https://www.google.com/maps/place/Exclusive+Fitness+Gym/data=!4m2!3m1!1s0x30da3a96dd484601:0x47c52557cc64139d,33.4440588,-117.5860649,394,ChIJNSK2L4P03IAR_WqVvJVI1Tc
HIDELAND.cnx,rooftop bar,https://www.google.com/maps/place/HIDELAND.cnx/data=!4m2!3m1!1s0x30da3b457d24f64b:0x26d3b12e6b24104e,18.7897028,98.99621789999999,395,ChIJS_YkfUU72jARThAkay6x0yY
Bar Phukhao,,https://www.google.com/maps/place/Bar+Phukhao/data=!4m2!3m1!1s0x30da3b2a5d374c9f:0x64475b29b058e71,18.7931357,98.9972969,396,ChIJn0w3XSo72jARcY4Fm7J1RAY
Khao Soi Khun Yai,,https://www.google.com/maps/place/Khao+Soi+Khun+Yai/data=!4m2!3m1!1s0x30da3a90e502855f:0x8922d47afbb94473,18.7953284,98.9831449,397,ChIJX4UC5ZA62jARc0S5-3rUIok
Khao Soi Lung Prakit Kad Kom,,https://www.google.com/maps/place/Khao+Soi+Lung+Prakit+Kad+Kom/data=!4m2!3m1!1s0x30da307352272841:0x96fef1de5f1ecceb,18.7744964,98.9896954,398,ChIJQSgnUnMw2jAR68weX97x_pY
Khao Soy Maesai,,https://www.google.com/maps/place/Khao+Soy+Maesai/data=!4m2!3m1!1s0x30da3a8c1eaccca9:0x45f0468a756c49e8,18.7995989,98.9752135,399,ChIJqcysHow62jAR6ElsdYpG8EU
BYB - UNDERGROUND CNX,electronic music,https://www.google.com/maps/place/BYB+-+UNDERGROUND+CNX/data=!4m2!3m1!1s0x30da3b95dc6cd0e3:0x5ff634129eb5b52b,18.7919606,98.99606899999999,400,ChIJ49Bs3JU72jARK7W1nhI09l8
ReD,"trance, techno, DnB",https://www.google.com/maps/place/ReD/data=!4m2!3m1!1s0x30da310a513242ed:0x33007e67687f5b,34.046183899999996,-118.2510222,401,ChIJha8YelXHwoARghJP0-5cI2Q
NOISE,minimal tech,https://www.google.com/maps/place/NOISE/data=!4m2!3m1!1s0x30da3bef1b894a1d:0x74f63dec52a125e9,34.043818,-118.2525931,402,ChIJGVkhNTXGwoAREYqK6TGS9Kk
Siam Lanna (cm) Guesthouse,650 THB / night,https://www.google.com/maps/place/Siam+Lanna+(cm)+Guesthouse/data=!4m2!3m1!1s0x30da3a8e02b5910f:0xd114c1a7b7e6a5d9,18.7898477,98.9930296,403,ChIJD5G1Ao462jAR2aXmt6fBFNE
Wat Pha Lat,,https://www.google.com/maps/place/Wat+Pha+Lat/data=!4m2!3m1!1s0x30da3a1a20f4a0eb:0x5def9b5b34bb6888,18.7993968,98.9341468,404,ChIJ66D0IBo62jARiGi7NFub710
Thai Akha Kitchen - Chiang Mai,,https://www.google.com/maps/place/Thai+Akha+Kitchen+-+Chiang+Mai/data=!4m2!3m1!1s0x30da3a9acdc3ce3b:0x4a0faec6efaf0458,18.7761554,98.99235619999999,405,ChIJO87DzZo62jARWASv78auD0o
Chiang Mai Night Safari,,https://www.google.com/maps/place/Chiang+Mai+Night+Safari/data=!4m2!3m1!1s0x30da37293ac232bf:0xcaafc0bee2a3f81a,18.7423503,98.9173241,406,ChIJvzLCOik32jARGvij4r7Ar8o
Chiang Mai Waroros Boutique Hotel,,https://www.google.com/maps/place/Chiang+Mai+Waroros+Boutique+Hotel/data=!4m2!3m1!1s0x30da3bf23c6ad037:0xfda31f075d317bb4,18.792464,98.9981061,407,ChIJN9BqPPI72jARtHsxXQcfo_0
Kuay Teow Khae -Street Noodle Soup,,https://www.google.com/maps/place/Kuay+Teow+Khae+-Street+Noodle+Soup/data=!4m2!3m1!1s0x30e29f2c47dadb0b:0x2dacd9b8cc3fab4a,13.7267216,100.53364490000001,408,ChIJC9vaRyyf4jARSqs_zLjZrC0
Hai Som Tam Convent,,https://www.google.com/maps/place/Hai+Som+Tam+Convent/data=!4m2!3m1!1s0x30e29f2c429ee4cd:0x50b0988d738b4e7f,13.7273414,100.533286,409,ChIJzeSeQiyf4jARf06Lc42YsFA
Bed By City Hotel,,https://www.google.com/maps/place/Bed+By+City+Hotel/data=!4m2!3m1!1s0x30e298d4c2748ec7:0xf9967f7da01fceb3,13.7309409,100.5281957,410,ChIJx450wtSY4jARs84foH1_lvk
The Secret Service Bed and Breakfast Hotel,,https://www.google.com/maps/place/The+Secret+Service+Bed+and+Breakfast+Hotel/data=!4m2!3m1!1s0x30e299ebde2777e7:0x9b47f2f1ed8ce72d,13.760184899999999,100.4986536,411,ChIJ53cn3uuZ4jARLeeM7fHyR5s
Ari BTS Station,,https://www.google.com/maps/place/Ari+BTS+Station/data=!4m2!3m1!1s0x30e29ea76248b233:0xb0f9895a7231acee,13.779689,100.544646,412,ChIJ32L9iR2c4jARHiq_Nd6a0ng
Wat Pha Lat Hike (Monk's trail),,https://www.google.com/maps/place/Wat+Pha+Lat+Hike+(Monk's+trail)/data=!4m2!3m1!1s0x30da3a13caf6d7c7:0x9b92635e2a72e98,18.797663699999998,98.9421813,413,ChIJx9f2yhM62jARmC6n4jUmuQk
Thon Buri,canals,https://www.google.com/maps/place/Thon+Buri/data=!4m2!3m1!1s0x30e2985f39205789:0x30100b25de24e70,13.707835699999999,100.4867816,414,ChIJiVcgOV-Y4jARcE7iXbIAAQM
Chang Phuak Gate Night Market - Food Stalls,,https://www.google.com/maps/place/Chang+Phuak+Gate+Night+Market+-+Food+Stalls/data=!4m2!3m1!1s0x30da3a9129fc858d:0x6fc6d33ee0ea5b19,18.7958715,98.98575439999999,415,ChIJjYX8KZE62jARGVvq4D7Txm8
Khao Soi Lamduan Fa Ham,,https://www.google.com/maps/place/Khao+Soi+Lamduan+Fa+Ham/data=!4m2!3m1!1s0x30da3ab6ff60f195:0xfec7f401382fd12,18.811453099999998,98.97889289999999,416,ChIJ9b_I0Pol2jARiG7-uw4khL8
Nimmanhaemin,"modern, artsy, hip neighborhood with cafes and boutiques",https://www.google.com/maps/place/Nimmanhaemin/data=!4m2!3m1!1s0x30da3a63ccd23efd:0xdc73130705b4ab94,18.798569,98.9668745,417,ChIJ_T7SzGM62jARlKu0BQcTc9w
The North Gate Jazz Co-Op,,https://www.google.com/maps/place/The+North+Gate+Jazz+Co-Op/data=!4m2!3m1!1s0x30da3a9725192b57:0x81bb3e0b9483c631,18.7951874,98.9870152,418,ChIJVysZJZc62jARMcaDlAs-u4E
Tong Tem Toh,dinner restaurant from 2016 trip,https://www.google.com/maps/place/Tong+Tem+Toh/data=!4m2!3m1!1s0x30da3a628a7efc09:0xf5ab324f73da2d39,18.7967038,98.96773499999999,419,ChIJCfx-imI62jAROS3ac08yq_U
Namtok Bua Tong-Nam Phu Chet Si National Park,sticky waterfalls,https://www.google.com/maps/place/Namtok+Bua+Tong-Nam+Phu+Chet+Si+National+Park/data=!4m2!3m1!1s0x30da1be7f33a53bb:0x4c0e02726fe57473,19.0691986,99.0794909,420,ChIJu1M68-cb2jARc3Tlb3ICDkw
Khaomao-Khaofang Imaginary Jungle,"jungle themed restaurant, Michelin-guide featured",https://www.google.com/maps/place/Khaomao-Khaofang+Imaginary+Jungle/data=!4m2!3m1!1s0x30dd98b4f3a98eed:0x625ccd31969c0f10,18.729941999999998,98.94358260000001,421,ChIJ7Y6p87SY3TAREA-cljHNXGI
Queen Saovabha Memorial Institute,collection of venomous snakes,https://www.google.com/maps/place/Queen+Saovabha+Memorial+Institute/data=!4m2!3m1!1s0x30e29f2a5742b231:0xe9e35279efea3ae9,13.732353699999999,100.53270239999999,422,ChIJMbJCVyqf4jAR6Trq73lS4-k
Wattana Panich,half century old soup ,https://www.google.com/maps/place/Wattana+Panich/data=!4m2!3m1!1s0x30e29e49982ce2f9:0x38858b25983d26,13.734182500000001,100.5876467,423,ChIJ-eIsmEme4jARJj2YJYuFOAA
Chiang Mai Night Bazaar,,https://www.google.com/maps/place/Chiang+Mai+Night+Bazaar/data=!4m2!3m1!1s0x30da3aa60ca74a5b:0xb2ef5007f26b01d,18.785273999999998,99.00027659999999,424,ChIJW0qnDKY62jARHbAmfwD1Lgs
Wat Si Don Chai Pa Tung Ngam (Wat Mae Kaet Noi),“Hell Temple”,https://www.google.com/maps/place/Wat+Si+Don+Chai+Pa+Tung+Ngam+(Wat+Mae+Kaet+Noi)/data=!4m2!3m1!1s0x30da2360cd976831:0x130292268a26549d,18.8780792,99.0365597,425,ChIJMWiXzWAj2jARnVQmiiaSAhM
Chiangmai Circuit - Go Kart,,https://www.google.com/maps/place/Chiangmai+Circuit+-+Go+Kart/data=!4m2!3m1!1s0x30da2f5136cd6817:0x228009076d589cce,18.776471,99.0684477,426,ChIJF2jNNlEv2jARzpxYbQcJgCI
The One Ratchada,,https://www.google.com/maps/place/The+One+Ratchada/data=!4m2!3m1!1s0x30e29e88b8f0625d:0x2c30ba0b8d64f91d,13.7670687,100.5686827,427,ChIJXWLwuIie4jARHflkjQu6MCw
Stamps Backpackers Hostel & Tours Chiang Mai,recommended for socializing and meeting people,https://www.google.com/maps/place/Stamps+Backpackers+Hostel+%26+Tours+Chiang+Mai/data=!4m2!3m1!1s0x30da3aa31da67f73:0x4fbce4bc8b8204af,18.7925887,98.99401180000001,428,ChIJc3-mHaM62jARrwSCi7zkvE8
Koh Chang,,https://www.google.com/maps/place/Koh+Chang/data=!4m2!3m1!1s0x310416b31770cc1f:0xdfd424b9e3ad2a9,12.0479159,102.3234816,429,ChIJfXJzF7MWBDER4Fe04UrYAwM
Koh Kood,,https://www.google.com/maps/place/Koh+Kood/data=!4m2!3m1!1s0x31069badd0f9c685:0x6e4c6c3c1cb65b83,11.6680759,102.5642261,430,ChIJhcb50K2bBjERg1u2HDxsTG4
Chatuchak Weekend Market,,https://www.google.com/maps/place/Chatuchak+Weekend+Market/data=!4m2!3m1!1s0x30e29c14e883f8dd:0x91f191d784b87d4b,13.799781,100.55042449999999,431,ChIJ3fiD6BSc4jARS324hNeR8ZE
King Power Mahanakhon,,https://www.google.com/maps/place/King+Power+Mahanakhon/data=!4m2!3m1!1s0x30e298d29976351b:0x4ea0c13ed9fa8674,13.7241538,100.52829260000001,432,ChIJyeUPvdKY4jARPTnn7ak4sig
Vang Vieng,,https://www.google.com/maps/place/Vang+Vieng/data=!4m2!3m1!1s0x3125ec34f03be713:0x1b35acb9d4d3e238,18.95009,102.44379,433,ChIJE-c78DTsJTEROOLT1LmsNRs
Krong Siem Reap,,https://www.google.com/maps/place/Krong+Siem+Reap/data=!4m2!3m1!1s0x3110169a8c91a879:0xa940aaf93ee5bbfa,13.3632533,103.856403,434,ChIJeaiRjJoWEDER-rvlPvmqQKk
Pai,,https://www.google.com/maps/place/Pai/data=!4m2!3m1!1s0x30da81b0e91eaceb:0x40079e40c8939ddf,34.0421225,-118.25142890000001,435,ChIJVVWlwzTGwoARr6CcMl-a9OA
Chiang Mai,,https://www.google.com/maps/place/Chiang+Mai/data=!4m2!3m1!1s0x30da3a7e90bb6f5d:0x98d46270a59b4367,18.788343899999997,98.98530079999999,436,ChIJXW-7kH462jARZ0ObpXBi1Jg
Luang Prabang,,https://www.google.com/maps/place/Luang+Prabang/data=!4m2!3m1!1s0x312f2a3f413d1ba3:0xac9749a9608e6a56,19.883285,102.1387166,437,ChIJoxs9QT8qLzERVmqOYKlJl6w
Telemung,coffee plantation with kopi luwak,https://www.google.com/maps/place/Telemung/data=!4m2!3m1!1s0x2dd149a9545b8197:0x804bd64bddd2085a,5.2049772,103.0241726,438,ChIJDfjLJj7GtzERxz2jy8rLN_Y
Ijen,,https://www.google.com/maps/place/Ijen/data=!4m2!3m1!1s0x2dd149f2110ae607:0x7c04ef029d5e39bc,-8.0583811,114.243299,439,ChIJB-YKEfJJ0S0RvDlenQLvBHw
Kalibaru,small village with cacao plantations ,https://www.google.com/maps/place/Kalibaru/data=!4m2!3m1!1s0x2dd6af944c5a8f1d:0xf74fff4ff5fdebaf,-8.2838456,113.9749466,440,ChIJHY9aTJSv1i0Rr-v99U__T_c
Fat Mermaid,drag queens bingo night 6pm on,https://www.google.com/maps/place/Fat+Mermaid/data=!4m2!3m1!1s0x0:0x1feb36eda8b2ad4a,-26.1692932,28.151215999999998,441,ChIJA0IKwy4SlR4R76DS-JpjyDs
Deus Ex Machina - Temple of Enthusiasm,live music / DJ,https://www.google.com/maps/place/Deus+Ex+Machina+-+Temple+of+Enthusiasm/data=!4m2!3m1!1s0x0:0x661ecdda57ac3f15,-8.6513758,115.13332159999997,442,ChIJs7AccHk40i0RFT-sV9rNHmY
Sand Bar,,https://www.google.com/maps/place/Sand+Bar/data=!4m2!3m1!1s0x2dd238767dbdb553:0x2d4a563faec2b492,33.8830509,-118.40948719999999,443,ChIJ5XWJRHqzwoARyB5_pLcWe8g
XBar Canggu,pregame,https://www.google.com/maps/place/XBar+Canggu/data=!4m2!3m1!1s0x2dd24787cbaeaf15:0x8c49cb67b16f899f,-8.6581909,115.1312494,444,ChIJFa-uy4dH0i0Rn4lvsWfLSYw
Nude,"very good brunch, has AC",https://www.google.com/maps/place/Nude/data=!4m2!3m1!1s0x2dd24781f263a267:0xdfc9089310a1c2d2,34.2043229,-118.41366350000001,445,ChIJF35nfpOWwoARlDhZAhW_Oa8
Pels Supershop,"breakfast, pancakes",https://www.google.com/maps/place/Pels+Supershop/data=!4m2!3m1!1s0x2dd2477942d4f197:0xe3383a7059928b26,-8.6609426,115.14672639999999,446,ChIJl_HUQnlH0i0RJouSWXA6OOM
Nalu Bowls,popular place for açaí bowls,https://www.google.com/maps/place/Nalu+Bowls/data=!4m2!3m1!1s0x2dd238770036baf5:0xe2ef6a950c517edf,-8.689181399999999,115.16683959999999,447,ChIJd5SQ-RdH0i0RXHLVfoh5-7U
Leke Leke Waterfall,,https://www.google.com/maps/place/Leke+Leke+Waterfall/data=!4m2!3m1!1s0x2dd220d6da4ff65d:0x7b898588ca3ea351,-8.3643494,115.1973031,448,ChIJXfZP2tYg0i0RUaM-yoiFiXs
Sangeh Monkey Forest,,https://www.google.com/maps/place/Sangeh+Monkey+Forest/data=!4m2!3m1!1s0x2dd223492c21e6a3:0xb715386c995db0c2,-8.4817743,115.2067391,449,ChIJo-YhLEkj0i0RwrBdmWw4Fbc
Jatiluwih Rice Terrace,less touristy rice terrace ,https://www.google.com/maps/place/Jatiluwih+Rice+Terrace/data=!4m2!3m1!1s0x2dd227ab020cd7fb:0x2f0f875ff3e6839a,-8.37031,115.131372,450,ChIJ-9cMAqsn0i0RmoPm81-HDy8
SATUSATU COFFEE COMPANY,recommended by Paulina,https://www.google.com/maps/place/SATUSATU+COFFEE+COMPANY/data=!4m2!3m1!1s0x2dd2477ddef07723:0xe4b94984490ec9b8,-8.6558639,115.14752220000001,451,ChIJI3fw3n1H0i0RuMkOSYRJueQ
The Avocado Factory,,https://www.google.com/maps/place/The+Avocado+Factory/data=!4m2!3m1!1s0x2dd23879c172aadf:0xf4d51b130959d687,-8.6522267,115.13174289999999,452,ChIJ36pywXk40i0Rh9ZZCRMb1fQ
Matcha Cafe Bali,,https://www.google.com/maps/place/Matcha+Cafe+Bali/data=!4m2!3m1!1s0x2dd24782274743ff:0x7cb9088236314042,-8.6604116,115.13954969999999,453,ChIJ_0NHJ4JH0i0RQkAxNoIIuXw
Alas Harum Bali,,https://www.google.com/maps/place/Alas+Harum+Bali/data=!4m2!3m1!1s0x2dd2227ee0628013:0xf443506a00fa75f3,-8.43989,115.2806075,454,ChIJE4Bi4H4i0i0R83X6AGpQQ_Q
Bayan Ancient Tree,,https://www.google.com/maps/place/Bayan+Ancient+Tree/data=!4m2!3m1!1s0x2dd226ab6eeb8da9:0xac4a15b5f28f1069,-8.4065528,115.18692,455,ChIJqY3rbqsm0i0RaRCP8rUVSqw
Tukad Cepung Waterfall,,https://www.google.com/maps/place/Tukad+Cepung+Waterfall/data=!4m2!3m1!1s0x2dd21ba0481caa43:0xbd3a446ae88503f,-8.4410173,115.3868079,456,ChIJQ6ocSKAb0i0RP1CIrkak0ws
Pantai Soan Galuh,,https://www.google.com/maps/place/Pantai+Soan+Galuh/data=!4m2!3m1!1s0x2dd233b919ecacd3:0x935885d936765653,-8.509582199999999,114.97490010000001,457,ChIJ06zsGbkz0i0RU1Z2NtmFWJM
Nungnung Waterfall,,https://www.google.com/maps/place/Nungnung+Waterfall/data=!4m2!3m1!1s0x2dd22083c3c810e3:0x8ad87885a422e318,-8.3297697,115.2293907,458,ChIJ4xDIw4Mg0i0RGOMipIV42Io
Gembleng Waterfall,,https://www.google.com/maps/place/Gembleng+Waterfall/data=!4m2!3m1!1s0x2dd21161dd087d7f:0xe13bbcf799ce7421,-8.4926826,115.460857,459,ChIJf30I3WER0i0RIXTOmfe8O-E
LAHANGAN SWEET,,https://www.google.com/maps/place/LAHANGAN+SWEET/data=!4m2!3m1!1s0x2dd2017806b570ad:0x3b06c78dc76ca3a2,-8.372158899999999,115.6371092,460,ChIJrXC1BngB0i0RoqNsx43HBjs
Jimbaran open seafood market,"fresh seafood, will cook however you’d like it",https://www.google.com/maps/place/Jimbaran+open+seafood+market/data=!4m2!3m1!1s0x2dd2446bb83bab6f:0x1cf6313f11b8ecc,-8.7565014,115.16825510000001,461,ChIJb6s7uGtE0i0RzI4b8RNjzwE
Uluwatu Temple,,https://www.google.com/maps/place/Uluwatu+Temple/data=!4m2!3m1!1s0x2dd24ffc20cb8191:0xcb98d1ba7db0495,-8.829143199999999,115.08490690000001,462,ChIJkYHLIPxP0i0RlQTbpxuNuQw
Potato Head Beach Club,electronic music,https://www.google.com/maps/place/Potato+Head+Beach+Club/data=!4m2!3m1!1s0x2dd24711ff4b76fd:0x1b9dac1a58048d4e,-8.6794353,115.1499342,463,ChIJ_XZL_xFH0i0RTo0EWBqsnRs
Varuna Warung Canggu,,https://www.google.com/maps/place/Varuna+Warung+Canggu/data=!4m2!3m1!1s0x2dd247843ce4c6cb:0x4d3910e7df0a85e6,-8.654793399999999,115.13168720000002,464,ChIJy8bkPIRH0i0R5oUK3-cQOU0
Taman Ujung,,https://www.google.com/maps/place/Taman+Ujung/data=!4m2!3m1!1s0x2dd20876e3e79815:0xfc9ab3edaa5d11f2,-8.4630811,115.6306692,465,ChIJFZjn43YI0i0R8hFdqu2zmvw
Tirta Gangga,,https://www.google.com/maps/place/Tirta+Gangga/data=!4m2!3m1!1s0x2dd24736f4379ad1:0x65af03b0d108a7d1,-8.4123473,115.5872919,466,ChIJ0Zo39DZH0i0R0acI0bADr2U
Goa Gajah,,https://www.google.com/maps/place/Goa+Gajah/data=!4m2!3m1!1s0x2dd216319e3e8cbb:0xcf6f85fcf798a545,-8.523437800000002,115.28715679999999,467,ChIJu4w-njEW0i0RRaWY9_yFb88
Ubud Art Market,,https://www.google.com/maps/place/Ubud+Art+Market/data=!4m2!3m1!1s0x2dd23de2db450aa1:0x409d0777de9a0ded,-8.5071639,115.26297249999999,468,ChIJoQpF2-I90i0R7Q2a3ncHnUA
Saraswati Temple,,https://www.google.com/maps/place/Saraswati+Temple/data=!4m2!3m1!1s0x2dd23d6a992a2b07:0xe028854c14cbced9,-8.5058937,115.26148809999998,469,ChIJBysqmWo90i0R2c7LFEyFKOA
Tegallalang Rice Terrace,,https://www.google.com/maps/place/Tegallalang+Rice+Terrace/data=!4m2!3m1!1s0x2dd2220b23f900e3:0x8d1a8969386c04ed,-8.431711199999999,115.279303,470,ChIJ4wD5Iwsi0i0R7QRsOGmJGo0
Penglipuran Village,,https://www.google.com/maps/place/Penglipuran+Village/data=!4m2!3m1!1s0x2dd2196eace4f4a9:0x3319169adf0c3419,-8.4222473,115.359306,471,ChIJqfTkrG4Z0i0RGTQM35oWGTM
Pura Tirta Empul,,https://www.google.com/maps/place/Pura+Tirta+Empul/data=!4m2!3m1!1s0x2dd218f4e06131b5:0x53a25a017714ecc1,-8.4156589,115.3153284,472,ChIJtTFh4PQY0i0RwewUdwFaolM
Jatiluwih,,https://www.google.com/maps/place/Jatiluwih/data=!4m2!3m1!1s0x2dd227bedf45cc29:0x5030bfbca831a80,-8.3492215,115.11183539999999,473,ChIJKcxF374n0i0RgBqDyvsLAwU
Banyu Wana Amertha Waterfall,,https://www.google.com/maps/place/Banyu+Wana+Amertha+Waterfall/data=!4m2!3m1!1s0x2dd18f0a0b36a42f:0xf64c6ae42a96c645,-8.212829,115.12222709999999,474,ChIJL6Q2CwqP0S0RRcaWKuRqTPY
Pasar Senggol Gianyar,,https://www.google.com/maps/place/Pasar+Senggol+Gianyar/data=!4m2!3m1!1s0x2dd2166099182ccb:0xae575a92f0e720bb,-8.5428315,115.32225520000001,475,ChIJyywYmWAW0i0RuyDn8JJaV64
Seniman Coffee Studio,,https://www.google.com/maps/place/Seniman+Coffee+Studio/data=!4m2!3m1!1s0x2dd23d6a065b98bb:0x6fa247aced3b9ae2,-8.5068964,115.26507319999999,476,ChIJu5hbBmo90i0R4po77axHom8
Museum Puri Lukisan,,https://www.google.com/maps/place/Museum+Puri+Lukisan/data=!4m2!3m1!1s0x2dd23d6aac844e31:0x1cf8abb996ec8402,-8.505915,115.26019,477,ChIJMU6ErGo90i0RAoTslrmr-Bw
Campuhan Ridge Walk,,https://www.google.com/maps/place/Campuhan+Ridge+Walk/data=!4m2!3m1!1s0x2dd23d6bcaf473f5:0x7c13fd74aa1bc49f,-8.5035806,115.25475789999999,478,ChIJ9XP0yms90i0Rn8QbqnT9E3w
Sacred Monkey Forest Sanctuary,,https://www.google.com/maps/place/Sacred+Monkey+Forest+Sanctuary/data=!4m2!3m1!1s0x2dd23d43f6189b67:0xb6ec43164befc356,-8.5193727,115.26062990000001,479,ChIJZ5sY9kM90i0RVsPvSxZD7LY
La Brisa Bali,beach club,https://www.google.com/maps/place/La+Brisa+Bali/data=!4m2!3m1!1s0x2dd23876693af8ad:0x86929db7c4eabc29,-8.6542178,115.1250199,480,ChIJrfg6aXY40i0RKbzqxLedkoY
Rice Paddies Photo Spot,,https://www.google.com/maps/place/Rice+Paddies+Photo+Spot/data=!4m2!3m1!1s0x2dd2385e44f67ab1:0xf9dada408fded85f,-8.6334922,115.13752600000001,481,ChIJsXr2RF440i0RX9jej0Da2vk
Old Man's,,https://www.google.com/maps/place/Old+Man's/data=!4m2!3m1!1s0x2dd2387daec155db:0x7fa32c5e3dc6fe8d,33.9970216,-118.43158849999999,482,ChIJTe3q8Wa6woARGrkJ93RvTb0
Love Anchor Canggu,,https://www.google.com/maps/place/Love+Anchor+Canggu/data=!4m2!3m1!1s0x2dd238796aeea797:0xf6fb68fe602b27b2,-8.6518287,115.13399319999999,483,ChIJl6fuank40i0RsicrYP5o-_Y
Sunday Market,,https://www.google.com/maps/place/Sunday+Market/data=!4m2!3m1!1s0x2dd238633fba9e59:0xcb18d5be2aa656a7,34.047785999999995,-118.24994099999999,484,ChIJFYqk8ErGwoARU6tTEcS_Uuo
Tanah Lot,Hindu temple,https://www.google.com/maps/place/Tanah+Lot/data=!4m2!3m1!1s0x2dd237824f71deab:0xcaabe270f7e34d69,-8.621213,115.086807,485,ChIJq95xT4I30i0RaU3j93Diq8o
Red Scooter Deli,lunch spot,https://www.google.com/maps/place/Red+Scooter+Deli/data=!4m2!3m1!1s0x80ecc5682367d135:0x18a39f68e87d6406,35.6208702,-120.6903306,486,ChIJNdFnI2jF7IARBmR96Gifoxg
1311 Chestnut St,Airbnb,https://www.google.com/maps/place/1311+Chestnut+St/data=!4m2!3m1!1s0x80ecc55ba5b7f63f:0x9990833173f48862,34.1806613,-118.32477169999999,487,EigxMzExIENoZXN0bnV0IFN0LCBCdXJiYW5rLCBDQSA5MTUwNiwgVVNBIjESLwoUChIJK30U32eVwoARQ8gpXXSnhmUQnwoqFAoSCUMyw6pClcKAEbux8QEQIHye
CANE TiKi ROOM,,https://www.google.com/maps/place/CANE+TiKi+ROOM/data=!4m2!3m1!1s0x80ecc510287fbe87:0x5f198bb484980b67,35.6275403,-120.6898814,488,ChIJh75_KBDF7IARZwuYhLSLGV8
Jeffry's Wine Country BBQ,,https://www.google.com/maps/place/Jeffry's+Wine+Country+BBQ/data=!4m2!3m1!1s0x80ecc59d1a6035a9:0xfa44ff3929e1b13d,35.6270879,-120.68958719999999,489,ChIJqTVgGp3F7IARPbHhKTn_RPo
Etto Pasta Bar,,https://www.google.com/maps/place/Etto+Pasta+Bar/data=!4m2!3m1!1s0x80ecc5b25077bf29:0xdd888fef7a075092,35.575452999999996,-120.6902507,490,ChIJKb93ULLF7IARklAHeu-PiN0
Finca Paso Robles,,https://www.google.com/maps/place/Finca+Paso+Robles/data=!4m2!3m1!1s0x80ecc578743acd97:0x4008e1b5e39d1790,35.6330773,-120.69225589999999,491,ChIJl806dHjF7IARkBed47XhCEA
AMSTRDM Coffee House | Piano Lounge,,https://www.google.com/maps/place/AMSTRDM+Coffee+House+%7C+Piano+Lounge/data=!4m2!3m1!1s0x80ecc5a78cfa4543:0x14a43f1908aadeac,35.6279065,-120.69064499999998,492,ChIJQ0X6jKfF7IARrN6qCBk_pBQ
Spearhead Coffee,,https://www.google.com/maps/place/Spearhead+Coffee/data=!4m2!3m1!1s0x80ecc55d29fd3d31:0x4f38f5010093712f,35.626774999999995,-120.692132,493,ChIJMT39KV3F7IARL3GTAAH1OE8
LXV Wine & Pairings Downtown Tasting Room,,https://www.google.com/maps/place/LXV+Wine+%26+Pairings+Downtown+Tasting+Room/data=!4m2!3m1!1s0x80ecc567f5e60a87:0xe46c3e7daead9e14,35.6282564,-120.6888006,494,ChIJhwrm9WfF7IARFJ6trn0-bOQ
Eberle Winery,,https://www.google.com/maps/place/Eberle+Winery/data=!4m2!3m1!1s0x80ecc5f97a6f3579:0x35a7624154c4c015,35.6497963,-120.6281037,495,ChIJeTVvevnF7IARFcDEVEFipzU
Les Petites Canailles,,https://www.google.com/maps/place/Les+Petites+Canailles/data=!4m2!3m1!1s0x80ecc5a95a89bbc3:0x286b97816108aac6,35.627001899999996,-120.69157489999999,496,ChIJw7uJWqnF7IARxqoIYYGXayg
Il Cortile Ristorante,,https://www.google.com/maps/place/Il+Cortile+Ristorante/data=!4m2!3m1!1s0x80ecc55cd19abf37:0x1ed89fb5f819783b,35.6264833,-120.69246389999999,497,ChIJN7-a0VzF7IARO3gZ-LWf2B4
Aaron Wines,,https://www.google.com/maps/place/Aaron+Wines/data=!4m2!3m1!1s0x80ecdf8b390c4549:0x5be26b849cd0232c,35.576219699999996,-120.69043839999999,498,ChIJSUUMOYvf7IARLCPQnIRr4ls
Cordant Winery,,https://www.google.com/maps/place/Cordant+Winery/data=!4m2!3m1!1s0x80ecc4b88a3216b7:0x65689a23f30b3ccb,35.5747609,-120.6970041,499,ChIJtxYyirjE7IARyzwL8yOaaGU
Tin City,bunch of tasting rooms in one place. also has a brewery and cider house,https://www.google.com/maps/place/Tin+City/data=!4m2!3m1!1s0x80ecc5478eb31b19:0xe0412eb9ef0e2f78,34.172550799999996,-118.510893,500,ChIJYwHuy7eZwoARta-SrZNdsGY
Halter Ranch Vineyard,,https://www.google.com/maps/place/Halter+Ranch+Vineyard/data=!4m2!3m1!1s0x80ecd651170387d3:0xbc02342a7fe838fb,35.6394216,-120.8545096,501,ChIJ04cDF1HW7IAR-zjofyo0Arw
Adelaida Vineyards,,https://www.google.com/maps/place/Adelaida+Vineyards/data=!4m2!3m1!1s0x80ecd1285952eea3:0xea01a5a9765c9f5e,35.6457001,-120.8024435,502,ChIJo-5SWSjR7IARXp9cdqmlAeo
Denner Vineyards,,https://www.google.com/maps/place/Denner+Vineyards/data=!4m2!3m1!1s0x80ecda301b169aab:0x3979cfe3a8648aef,35.5770696,-120.79258259999999,503,ChIJq5oWGzDa7IAR74pkqOPPeTk
