[
    {
        "title": "Windsor at Dogpatch",
        "note": "",
        "url": "https://www.google.com/maps/place/Windsor+at+Dogpatch/data=!4m2!3m1!1s0x808f7fba5ceb52ef:0x28dfa93c1fe36937",
        "lat": 37.7559386,
        "lng": -122.38839969999998,
        "_id": 1,
        "google_place_id": "ChIJ71LrXLp_j4ARN2njHzyp3yg"
    },
    {
        "title": "370 7th St",
        "note": "",
        "url": "https://www.google.com/maps/place/370+7th+St/data=!4m2!3m1!1s0x808f7e2a01ae4b1b:0x68146be54e8dff09",
        "lat": 34.045727899999996,
        "lng": -118.25449849999998,
        "_id": 2,
        "google_place_id": "EiYzNzAgN3RoIFN0LCBMb3MgQW5nZWxlcywgQ0EgOTAwMTQsIFVTQSIxEi8KFAoSCf1_62m1x8KAEe9FikZSTa4BEPICKhQKEglvV0ejfsfCgBEV2y-fltw7Ew"
    },
    {
        "title": "One Henry Adams Apartments",
        "note": "",
        "url": "https://www.google.com/maps/place/One+Henry+Adams+Apartments/data=!4m2!3m1!1s0x808f7e2d1c7cbd8d:0x79af7806eac65471",
        "lat": 37.769118999999996,
        "lng": -122.40341760000001,
        "_id": 3,
        "google_place_id": "ChIJjb18HC1-j4ARcVTG6gZ4r3k"
    },
    {
        "title": "49 Zoe St",
        "note": "",
        "url": "https://www.google.com/maps/place/49+Zoe+St/data=!4m2!3m1!1s0x8085807f4c38f81d:0xe2aeef3a79d5bd46",
        "lat": 37.780060999999996,
        "lng": -122.39606459999999,
        "_id": 4,
        "google_place_id": "ChIJHfg4TH-AhYARRr3VeTrvruI"
    },
    {
        "title": "SoMa Square Apartments",
        "note": "",
        "url": "https://www.google.com/maps/place/SoMa+Square+Apartments/data=!4m2!3m1!1s0x8085807e9c91004b:0x37a1a61accd4be1f",
        "lat": 37.7836046,
        "lng": -122.3976651,
        "_id": 5,
        "google_place_id": "ChIJSwCRnH6AhYARH77UzBqmoTc"
    },
    {
        "title": "Strata at Mission Bay Apartments",
        "note": "",
        "url": "https://www.google.com/maps/place/Strata+at+Mission+Bay+Apartments/data=!4m2!3m1!1s0x808f7fd06bdff96f:0x58c408730be9c5b9",
        "lat": 37.772509299999996,
        "lng": -122.3912148,
        "_id": 6,
        "google_place_id": "ChIJb_nfa9B_j4ARucXpC3MIxFg"
    },
    {
        "title": "821 Folsom St",
        "note": "",
        "url": "https://www.google.com/maps/place/821+Folsom+St/data=!4m2!3m1!1s0x8085807e1e25dc69:0x45c7df5241434a05",
        "lat": 34.045034199999996,
        "lng": -118.18374730000001,
        "_id": 7,
        "google_place_id": "Eik4MjEgRm9sc29tIFN0LCBMb3MgQW5nZWxlcywgQ0EgOTAwNjMsIFVTQSIxEi8KFAoSCfmeYNv0xcKAEbieL36Zc1mbELUGKhQKEgnTFztO8cXCgBHtid4fm5pLJw"
    },
    {
        "title": "870 Harrison St",
        "note": "",
        "url": "https://www.google.com/maps/place/870+Harrison+St/data=!4m2!3m1!1s0x8085807fd5e2f55f:0xa4cf8361619209bd",
        "lat": 33.8835623,
        "lng": -118.1599717,
        "_id": 8,
        "google_place_id": "ChIJ-UrDVdUy3YARB4IWtQveurQ"
    },
    {
        "title": "855 Brannan St",
        "note": "",
        "url": "https://www.google.com/maps/place/855+Brannan+St/data=!4m2!3m1!1s0x808f7e2b7d6381c7:0xec4be0e417c4ed48",
        "lat": 37.7719439,
        "lng": -122.4043322,
        "_id": 9,
        "google_place_id": "ChIJnRCsgSt-j4AROengygLbZT0"
    },
    {
        "title": "Avalon at Mission Bay",
        "note": "",
        "url": "https://www.google.com/maps/place/Avalon+at+Mission+Bay/data=!4m2!3m1!1s0x808f7fd6dd702f27:0xb55a40a334590773",
        "lat": 37.776453,
        "lng": -122.39345039999999,
        "_id": 10,
        "google_place_id": "ChIJJy9w3dZ_j4ARcwdZNKNAWrU"
    },
    {
        "title": "829 Folsom St",
        "note": "",
        "url": "https://www.google.com/maps/place/829+Folsom+St/data=!4m2!3m1!1s0x80858080a1c30fc1:0x7213603f2ca12df8",
        "lat": 34.0450985,
        "lng": -118.1838171,
        "_id": 11,
        "google_place_id": "Eik4MjkgRm9sc29tIFN0LCBMb3MgQW5nZWxlcywgQ0EgOTAwNjMsIFVTQSIxEi8KFAoSCfmeYNv0xcKAEbieL36Zc1mbEL0GKhQKEgnTFztO8cXCgBHtid4fm5pLJw"
    },
    {
        "title": "Potrero 1010 Apartments",
        "note": "",
        "url": "https://www.google.com/maps/place/Potrero+1010+Apartments/data=!4m2!3m1!1s0x808f7fcc497edea1:0x3656b4c67dae9ee0",
        "lat": 37.766644899999996,
        "lng": -122.3976045,
        "_id": 12,
        "google_place_id": "ChIJod5-Scx_j4AR4J6ufca0VjY"
    },
    {
        "title": "Banyu Mili Resto",
        "note": "traditional seafood restaurant with floor seating ",
        "url": "https://www.google.com/maps/place/Banyu+Mili+Resto/data=!4m2!3m1!1s0x2e7a58168239ab33:0x90db373e98c46e0e",
        "lat": -7.7759095,
        "lng": 110.3463541,
        "_id": 13,
        "google_place_id": "ChIJM6s5ghZYei4RDm7EmD4325A"
    },
    {
        "title": "The House of Raminten",
        "note": "owned by local tycoon, traditional foods",
        "url": "https://www.google.com/maps/place/The+House+of+Raminten/data=!4m2!3m1!1s0x2e7a5831e4074603:0xbf9157808e91c603",
        "lat": -7.7851826,
        "lng": 110.3713911,
        "_id": 14,
        "google_place_id": "ChIJA0YH5DFYei4RA8aRjoBXkb8"
    },
    {
        "title": "Lupis Mbah Satinem",
        "note": "traditional snacks",
        "url": "https://www.google.com/maps/place/Lupis+Mbah+Satinem/data=!4m2!3m1!1s0x2e7a583bac7a592f:0xba74f7260bd2e1e1",
        "lat": -7.783016099999998,
        "lng": 110.3635002,
        "_id": 15,
        "google_place_id": "ChIJL1l6rDtYei4R4eHSCyb3dLo"
    },
    {
        "title": "Bu Narti Super Spicy Meal",
        "note": "oseng mercon - firecracker stir-fry",
        "url": "https://www.google.com/maps/place/Bu+Narti+Super+Spicy+Meal/data=!4m2!3m1!1s0x2e7a577b7fe84623:0xbdcb4d1099f1050",
        "lat": -7.801300500000001,
        "lng": 110.3574346,
        "_id": 16,
        "google_place_id": "ChIJI0bof3tXei4RUBCfCdG03As"
    },
    {
        "title": "Ronde Kauman Mbah Payem",
        "note": "wedang ronde - warm ginger drink with peanut-filled balls of glutinous rice",
        "url": "https://www.google.com/maps/place/Ronde+Kauman+Mbah+Payem/data=!4m2!3m1!1s0x2e7a578e7854e65b:0xe645fa21129253c8",
        "lat": -7.8044373,
        "lng": 110.36096719999999,
        "_id": 17,
        "google_place_id": "ChIJW-ZUeI5Xei4RyFOSEiH6ReY"
    },
    {
        "title": "Lumpia Samijaya",
        "note": "lumpia",
        "url": "https://www.google.com/maps/place/Lumpia+Samijaya/data=!4m2!3m1!1s0x2e7a582830d86139:0xe9f277b05950ed89",
        "lat": -7.7943067,
        "lng": 110.3657468,
        "_id": 18,
        "google_place_id": "ChIJwb5-widYei4R_XSVNtjX7zc"
    },
    {
        "title": "Angkringan Kopi Jos Lik Man",
        "note": "charcoal coffee",
        "url": "https://www.google.com/maps/place/Angkringan+Kopi+Jos+Lik+Man/data=!4m2!3m1!1s0x2e7a58258545add9:0x92ce1fde42439ef9",
        "lat": -7.782273399999999,
        "lng": 110.3653327,
        "_id": 19,
        "google_place_id": "ChIJ2a1FhSVYei4R-Z5DQt4fzpI"
    },
    {
        "title": "Bale Raos - The Sultan's Dishes",
        "note": "",
        "url": "https://www.google.com/maps/place/Bale+Raos+-+The+Sultan's+Dishes/data=!4m2!3m1!1s0x2e7a578d61c24d1f:0x49bde399ebde344c",
        "lat": -7.808708,
        "lng": 110.36258699999999,
        "_id": 20,
        "google_place_id": "ChIJH03CYY1Xei4RTDTe65njvUk"
    },
    {
        "title": "Space Coffee Roastery",
        "note": "",
        "url": "https://www.google.com/maps/place/Space+Coffee+Roastery/data=!4m2!3m1!1s0x2e7a584335baa0b5:0x92012d15e3dd6d9f",
        "lat": -7.7660474,
        "lng": 110.3606993,
        "_id": 21,
        "google_place_id": "ChIJtaC6NUNYei4Rn23d4xUtAZI"
    },
    {
        "title": "Warung Kopi Klotok",
        "note": "traditional Indonesian coffee, fried banana",
        "url": "https://www.google.com/maps/place/Warung+Kopi+Klotok/data=!4m2!3m1!1s0x2e7a5e80a3df1d61:0x3c02536343f1185c",
        "lat": -7.6703429000000005,
        "lng": 110.4213061,
        "_id": 22,
        "google_place_id": "ChIJYR3fo4Beei4RXBjxQ2NTAjw"
    },
    {
        "title": "Ramayana Ballet Prambanan",
        "note": "nightly shows",
        "url": "https://www.google.com/maps/place/Ramayana+Ballet+Prambanan/data=!4m2!3m1!1s0x2e7a5ae3091a1081:0x42d3e57612b8cf42",
        "lat": -7.7530267,
        "lng": 110.4884829,
        "_id": 23,
        "google_place_id": "ChIJgRAaCeNaei4RQs-4Enbl00I"
    },
    {
        "title": "Bukit Rhema Gereja Ayam",
        "note": "chicken church",
        "url": "https://www.google.com/maps/place/Bukit+Rhema+Gereja+Ayam/data=!4m2!3m1!1s0x2e7a8d0411951787:0x24751ba0cf5dde6b",
        "lat": -7.605709300000001,
        "lng": 110.18048399999999,
        "_id": 24,
        "google_place_id": "ChIJhxeVEQSNei4Ra95dz6AbdSQ"
    },
    {
        "title": "Jomblang Cave",
        "note": "",
        "url": "https://www.google.com/maps/place/Jomblang+Cave/data=!4m2!3m1!1s0x2e7bb41fce34d717:0xf9ffcb6f9fbd5cce",
        "lat": -8.0281562,
        "lng": 110.6383307,
        "_id": 25,
        "google_place_id": "ChIJF9c0zh-0ey4Rzly9n2_L__k"
    },
    {
        "title": "Kebun Teh Nglinggo",
        "note": "tea plantation ",
        "url": "https://www.google.com/maps/place/Kebun+Teh+Nglinggo/data=!4m2!3m1!1s0x2e7af2aa21b914df:0x99633b0e828534dc",
        "lat": -7.647054,
        "lng": 110.14146989999999,
        "_id": 26,
        "google_place_id": "ChIJ3xS5Iaryei4R3DSFgg47Y5k"
    },
    {
        "title": "Mount Merapi",
        "note": "Jeep tours",
        "url": "https://www.google.com/maps/place/Mount+Merapi/data=!4m2!3m1!1s0x2e7a641ec0ff2fa5:0xe92612624cad8800",
        "lat": -7.5407175,
        "lng": 110.44572409999999,
        "_id": 27,
        "google_place_id": "ChIJpS__wB5kei4RAIitTGISJuk"
    },
    {
        "title": "Pasthy Love Bird Market Yogyakarta",
        "note": "",
        "url": "https://www.google.com/maps/place/Pasthy+Love+Bird+Market+Yogyakarta/data=!4m2!3m1!1s0x2e7a57b87f1b651d:0x7367b657b6fa6d4a",
        "lat": -7.8257724,
        "lng": 110.3552247,
        "_id": 28,
        "google_place_id": "ChIJHWUbf7hXei4RSm36tle2Z3M"
    },
    {
        "title": "Pasar Beringharjo",
        "note": "",
        "url": "https://www.google.com/maps/place/Pasar+Beringharjo/data=!4m2!3m1!1s0x2e7af7fe02ca3761:0x39ebbc4df90b410c",
        "lat": -7.798812,
        "lng": 110.36573709999999,
        "_id": 29,
        "google_place_id": "ChIJYTfKAv73ei4RDEEL-U286zk"
    },
    {
        "title": "Jl. Prawirotaman",
        "note": "hipster / artsy area",
        "url": "https://www.google.com/maps/place/Jl.+Prawirotaman/data=!4m2!3m1!1s0x2e7a57a3b3a61435:0x774108c3c95d17b9",
        "lat": -7.8191529,
        "lng": 110.3706155,
        "_id": 30,
        "google_place_id": "ChIJNRSms6NXei4RuRddycMIQXc"
    },
    {
        "title": "Klinik Kopi",
        "note": "",
        "url": "https://www.google.com/maps/place/Klinik+Kopi/data=!4m2!3m1!1s0x2e7a5916ccfd34f3:0x864de6e7288bfc5d",
        "lat": -7.737984399999999,
        "lng": 110.39441199999999,
        "_id": 31,
        "google_place_id": "ChIJ8zT9zBZZei4RXfyLKOfmTYY"
    },
    {
        "title": "Bukit Panguk Kediwung",
        "note": "",
        "url": "https://www.google.com/maps/place/Bukit+Panguk+Kediwung/data=!4m2!3m1!1s0x2e7bacb24995d023:0x95aec26c5e9774a2",
        "lat": -7.9583695,
        "lng": 110.4407622,
        "_id": 32,
        "google_place_id": "ChIJI9CVSbKsey4RonSXXmzCrpU"
    },
    {
        "title": "Becici Peak",
        "note": "",
        "url": "https://www.google.com/maps/place/Becici+Peak/data=!4m2!3m1!1s0x2e7a531aaaaaaaab:0x6c28149b91ea59f4",
        "lat": -7.9020355,
        "lng": 110.4374627,
        "_id": 33,
        "google_place_id": "ChIJq6qqqhpTei4R9FnqkZsUKGw"
    },
    {
        "title": "Alun Alun Kidul",
        "note": "night/weekend, bling-bling cars",
        "url": "https://www.google.com/maps/place/Alun+Alun+Kidul/data=!4m2!3m1!1s0x2e7a5796d3ee690f:0x50562263d6351120",
        "lat": -7.811939299999999,
        "lng": 110.3632767,
        "_id": 34,
        "google_place_id": "ChIJD2nu05ZXei4RIBE11mMiVlA"
    },
    {
        "title": "PRAMBANAN Temple",
        "note": "",
        "url": "https://www.google.com/maps/place/PRAMBANAN+Temple/data=!4m2!3m1!1s0x2e7a5ae3dbd859d1:0x19e7a03b25955a2d",
        "lat": -7.752020600000001,
        "lng": 110.49146739999999,
        "_id": 35,
        "google_place_id": "ChIJ0VnY2-Naei4RLVqVJTug5xk"
    },
    {
        "title": "Borobudur Temple",
        "note": "sunrise",
        "url": "https://www.google.com/maps/place/Borobudur+Temple/data=!4m2!3m1!1s0x2e7a8cf009a7d697:0xdd34334744dc3cb",
        "lat": -7.6078738,
        "lng": 110.2037513,
        "_id": 36,
        "google_place_id": "ChIJl9anCfCMei4Ry8NNdDRD0w0"
    },
    {
        "title": "Taman Sari",
        "note": "water castle",
        "url": "https://www.google.com/maps/place/Taman+Sari/data=!4m2!3m1!1s0x2e7a5793d0c2cf2b:0x276a21f8a01cbe13",
        "lat": -7.810129000000001,
        "lng": 110.3597186,
        "_id": 37,
        "google_place_id": "ChIJK8_C0JNXei4RE74coPghaic"
    },
    {
        "title": "Bakso Klenger Ratu Sari (Meatball)",
        "note": "giant Bakso (meatball)",
        "url": "https://www.google.com/maps/place/Bakso+Klenger+Ratu+Sari+(Meatball)/data=!4m2!3m1!1s0x2e7a59c228c99057:0xeb233d5535e1d4ce",
        "lat": -7.7791404,
        "lng": 110.4001351,
        "_id": 38,
        "google_place_id": "ChIJV5DJKMJZei4RztThNVU9I-s"
    },
    {
        "title": "The Palace of Yogyakarta",
        "note": "",
        "url": "https://www.google.com/maps/place/The+Palace+of+Yogyakarta/data=!4m2!3m1!1s0x2e7a5796db06c7ef:0x395271cf052b276c",
        "lat": -7.8052845,
        "lng": 110.3642031,
        "_id": 39,
        "google_place_id": "ChIJ78cG25ZXei4RbCcrBc9xUjk"
    },
    {
        "title": "Jl. Malioboro",
        "note": "",
        "url": "https://www.google.com/maps/place/Jl.+Malioboro/data=!4m2!3m1!1s0x2e7a5825fa6106c5:0x3ea4c521a5ed1133",
        "lat": -7.7926566,
        "lng": 110.3658454,
        "_id": 40,
        "google_place_id": "ChIJxQZh-iVYei4RMxHtpSHFpD4"
    },
    {
        "title": "Eiscafe Banco",
        "note": "",
        "url": "https://www.google.com/maps/place/Eiscafe+Banco/data=!4m2!3m1!1s0x4799db36195ae265:0xa91f4b123496a00e",
        "lat": 48.777360599999994,
        "lng": 9.175058199999999,
        "_id": 41,
        "google_place_id": "ChIJZeJaGTbbmUcRDqCWNBJLH6k"
    },
    {
        "title": "Schlossplatz Stuttgart",
        "note": "",
        "url": "https://www.google.com/maps/place/Schlossplatz+Stuttgart/data=!4m2!3m1!1s0x4799db35a609056f:0x816f73494c40723a",
        "lat": 48.7784785,
        "lng": 9.1795481,
        "_id": 42,
        "google_place_id": "ChIJbwUJpjXbmUcROnJATElzb4E"
    },
    {
        "title": "Schillerplatz",
        "note": "",
        "url": "https://www.google.com/maps/place/Schillerplatz/data=!4m2!3m1!1s0x4799db358f1cc33f:0x6fb5727358673378",
        "lat": 48.2017608,
        "lng": 16.365343,
        "_id": 43,
        "google_place_id": "ChIJrcftNoUHbUcRiT_dvyTPINU"
    },
    {
        "title": "Porsche Museum",
        "note": "",
        "url": "https://www.google.com/maps/place/Porsche+Museum/data=!4m2!3m1!1s0x4799da8732ced9e1:0x3c80648eb55f7987",
        "lat": 33.8509911,
        "lng": -118.27922129999999,
        "_id": 44,
        "google_place_id": "ChIJZ7wKUko13YAR2A0Dw9ry7MQ"
    },
    {
        "title": "Mercedes-Benz Museum",
        "note": "",
        "url": "https://www.google.com/maps/place/Mercedes-Benz+Museum/data=!4m2!3m1!1s0x4799c4feda1ddf91:0xc166f4f1bffb4b94",
        "lat": 48.7883399,
        "lng": 9.2336743,
        "_id": 45,
        "google_place_id": "ChIJkd8d2v7EmUcRlEv7v_H0ZsE"
    },
    {
        "title": "Domaine Pierre Adam | Vins d'Alsace",
        "note": "no reservations required ",
        "url": "https://www.google.com/maps/place/Domaine+Pierre+Adam+%7C+Vins+d'Alsace/data=!4m2!3m1!1s0x4791612826e007df:0x68bf17cff936ea47",
        "lat": 48.127852600000004,
        "lng": 7.284207799999999,
        "_id": 46,
        "google_place_id": "ChIJ3wfgJihhkUcRR-o2-c8Xv2g"
    },
    {
        "title": "La Petite Venise",
        "note": "",
        "url": "https://www.google.com/maps/place/La+Petite+Venise/data=!4m2!3m1!1s0x479165ef5006a63d:0xe758095d72e39015",
        "lat": 48.0739795,
        "lng": 7.3572869999999995,
        "_id": 47,
        "google_place_id": "ChIJPaYGUO9lkUcRFZDjcl0JWOc"
    },
    {
        "title": "Galleria Vittorio Emanuele II",
        "note": "",
        "url": "https://www.google.com/maps/place/Galleria+Vittorio+Emanuele+II/data=!4m2!3m1!1s0x47793506fd86b6c3:0x270b9ca95809d416",
        "lat": 45.4658434,
        "lng": 9.1899401,
        "_id": 48,
        "google_place_id": "ChIJw7aG_QY1eUcRFtQJWKmcCyc"
    },
    {
        "title": "P.za del Duomo",
        "note": "",
        "url": "https://www.google.com/maps/place/P.za+del+Duomo/data=!4m2!3m1!1s0x4786c6ae939351df:0xd445dec2978d0e3f",
        "lat": 45.4637188,
        "lng": 9.1906043,
        "_id": 49,
        "google_place_id": "ChIJ31GTk67GhkcRPw6Nl8LeRdQ"
    },
    {
        "title": "Alpe di Siusi",
        "note": "",
        "url": "https://www.google.com/maps/place/Alpe+di+Siusi/data=!4m2!3m1!1s0x47786d388c2d1fab:0xb3117015b5a492e",
        "lat": 46.5423435,
        "lng": 11.6168855,
        "_id": 50,
        "google_place_id": "ChIJryhkuM4UeEcRO8LvfWPzGJQ"
    },
    {
        "title": "Cable car Sass Pordoi",
        "note": "",
        "url": "https://www.google.com/maps/place/Cable+car+Sass+Pordoi/data=!4m2!3m1!1s0x47786ae9b8729489:0xab074cabca1a112a",
        "lat": 46.4882889,
        "lng": 11.811195399999999,
        "_id": 51,
        "google_place_id": "ChIJiZRyuOlqeEcRKhEayqtMB6s"
    },
    {
        "title": "Karersee",
        "note": "",
        "url": "https://www.google.com/maps/place/Karersee/data=!4m2!3m1!1s0x47786fe8e28162b7:0xdb332cfdd84fb462",
        "lat": 46.4092273,
        "lng": 11.5750645,
        "_id": 52,
        "google_place_id": "ChIJt2KB4uhveEcRYrRP2P0sM9s"
    },
    {
        "title": "Restaurant Poseidon",
        "note": "Greek",
        "url": "https://www.google.com/maps/place/Restaurant+Poseidon/data=!4m2!3m1!1s0x479e7672b932de4f:0xfc5f2245d33ed156",
        "lat": 32.9621306,
        "lng": -117.268125,
        "_id": 53,
        "google_place_id": "ChIJCcxNSjUP3IARniW80QykzxY"
    },
    {
        "title": "Zephyr Bar",
        "note": "",
        "url": "https://www.google.com/maps/place/Zephyr+Bar/data=!4m2!3m1!1s0x479ddf66b79392eb:0x5338e4fb418e2a1c",
        "lat": 37.6800451,
        "lng": -121.7746562,
        "_id": 54,
        "google_place_id": "ChIJcYUmaJjnj4ARiMpY9X4cdLA"
    },
    {
        "title": "Auroom",
        "note": "super cocktails, need to make reservations ",
        "url": "https://www.google.com/maps/place/Auroom/data=!4m2!3m1!1s0x479ddf5dc743fb9d:0xee6bdddc9099c0d",
        "lat": 58.349590299999996,
        "lng": 26.926704400000002,
        "_id": 55,
        "google_place_id": "ChIJobDvykUv60YRQaxmRU1QAl8"
    },
    {
        "title": "Brezelina",
        "note": "Butterbrezn",
        "url": "https://www.google.com/maps/place/Brezelina/data=!4m2!3m1!1s0x479e758b2a7bfcf9:0xb79ec40e51dcf59",
        "lat": 48.1390381,
        "lng": 11.565202699999999,
        "_id": 56,
        "google_place_id": "ChIJS1pB5PZ1nkcRtOI8G6gsfVQ"
    },
    {
        "title": "Munich Soup Kitchen",
        "note": "snacks ",
        "url": "https://www.google.com/maps/place/Munich+Soup+Kitchen/data=!4m2!3m1!1s0x479e758a9d1b12ef:0xd1a4ca5fc02eac3b",
        "lat": 48.1347722,
        "lng": 11.576272,
        "_id": 57,
        "google_place_id": "ChIJ7xIbnYp1nkcRO6wuwF_KpNE"
    },
    {
        "title": "Chopan Schwabing",
        "note": "",
        "url": "https://www.google.com/maps/place/Chopan+Schwabing/data=!4m2!3m1!1s0x479e75b9ba8f6fb1:0xd8e0b218bce28f3",
        "lat": 48.1617526,
        "lng": 11.589178700000001,
        "_id": 58,
        "google_place_id": "ChIJsW-Purl1nkcR8yjOiyELjg0"
    },
    {
        "title": "Steinheil 16",
        "note": "Super Schnitzel",
        "url": "https://www.google.com/maps/place/Steinheil+16/data=!4m2!3m1!1s0x479e75e5cbc8ff45:0xff72ff3b15a14662",
        "lat": 48.1498993,
        "lng": 11.564211,
        "_id": 59,
        "google_place_id": "ChIJRf_Iy-V1nkcRYkahFTv_cv8"
    },
    {
        "title": "Ballabeni Icecream Stammhaus",
        "note": "",
        "url": "https://www.google.com/maps/place/Ballabeni+Icecream+Stammhaus/data=!4m2!3m1!1s0x479e75ec3f79ac31:0x7e785e0b56c2cf65",
        "lat": 48.148481499999995,
        "lng": 11.574601399999999,
        "_id": 60,
        "google_place_id": "ChIJMax5P-x1nkcRZc_CVgteeH4"
    },
    {
        "title": "Technik Museum Sinsheim",
        "note": "",
        "url": "https://www.google.com/maps/place/Technik+Museum+Sinsheim/data=!4m2!3m1!1s0x479791c66605566f:0x9fb2eb226944dd63",
        "lat": 49.238783999999995,
        "lng": 8.897242499999999,
        "_id": 61,
        "google_place_id": "ChIJb1YFZsaRl0cRY91EaSLrsp8"
    },
    {
        "title": "Westfriedhof",
        "note": "",
        "url": "https://www.google.com/maps/place/Westfriedhof/data=!4m2!3m1!1s0x479e765b52fd0ad3:0x81bc30dd0f47e822",
        "lat": 48.1700981,
        "lng": 11.5244316,
        "_id": 62,
        "google_place_id": "ChIJz3clIlB2nkcR-6r9ySFl2UQ"
    },
    {
        "title": "Endless Staircase",
        "note": "",
        "url": "https://www.google.com/maps/place/Endless+Staircase/data=!4m2!3m1!1s0x479dd8ac0263ecb3:0xd94cdcb1d2178e0c",
        "lat": 48.1327816,
        "lng": 11.540263,
        "_id": 63,
        "google_place_id": "ChIJs-xjAqzYnUcRDI4X0rHcTNk"
    },
    {
        "title": "BLITZ Club",
        "note": "techno club",
        "url": "https://www.google.com/maps/place/BLITZ+Club/data=!4m2!3m1!1s0x479ddf62d1638fd1:0x23608906958fc06b",
        "lat": 48.1314923,
        "lng": 11.5859911,
        "_id": 64,
        "google_place_id": "ChIJ0Y9j0WLfnUcRa8CPlQaJYCM"
    },
    {
        "title": "Harry Klein",
        "note": "techno club",
        "url": "https://www.google.com/maps/place/Harry+Klein/data=!4m2!3m1!1s0x479e75f7afe2f83f:0xe10256554fc6f2f8",
        "lat": 48.137636799999996,
        "lng": 11.5643596,
        "_id": 65,
        "google_place_id": "ChIJP_jir_d1nkcR-PLGT1VWAuE"
    },
    {
        "title": "Rote Sonne",
        "note": "techno club",
        "url": "https://www.google.com/maps/place/Rote+Sonne/data=!4m2!3m1!1s0x479e75f22a305721:0xcd9a2d3d69cf493e",
        "lat": 48.1424914,
        "lng": 11.570280499999999,
        "_id": 66,
        "google_place_id": "ChIJIVcwKvJ1nkcRPknPaT0tms0"
    },
    {
        "title": "Idstein",
        "note": "colorful buildings ",
        "url": "https://www.google.com/maps/place/Idstein/data=!4m2!3m1!1s0x47bdb0a2913d7517:0x422435029b0a220",
        "lat": 50.2171726,
        "lng": 8.265894,
        "_id": 67,
        "google_place_id": "ChIJF3U9kaKwvUcRIKKwKVBDIgQ"
    },
    {
        "title": "Libreria dell'Automobile",
        "note": "",
        "url": "https://www.google.com/maps/place/Libreria+dell'Automobile/data=!4m2!3m1!1s0x4786c6bbdaa38539:0x28ba92e97510fc09",
        "lat": 45.4709401,
        "lng": 9.201206899999999,
        "_id": 68,
        "google_place_id": "ChIJOYWj2rvGhkcRCfwQdemSuig"
    },
    {
        "title": "MOTORWORLD Region Stuttgart",
        "note": "",
        "url": "https://www.google.com/maps/place/MOTORWORLD+Region+Stuttgart/data=!4m2!3m1!1s0x4799de2a86ddd1b9:0x5db723be9f0f817d",
        "lat": 48.6903285,
        "lng": 9.0037418,
        "_id": 69,
        "google_place_id": "ChIJudHdhiremUcRfYEPn74jt10"
    },
    {
        "title": "Seceda",
        "note": "take 34\u20ac gondola to top of 2,500m mountain",
        "url": "https://www.google.com/maps/place/Seceda/data=!4m2!3m1!1s0x477813ee15dae6ab:0xfb0dc80bc6d0534f",
        "lat": 46.5980566,
        "lng": 11.7241678,
        "_id": 70,
        "google_place_id": "ChIJq-baFe4TeEcRT1PQxgvIDfs"
    },
    {
        "title": "Hotel Garni Serena",
        "note": "",
        "url": "https://www.google.com/maps/place/Hotel+Garni+Serena/data=!4m2!3m1!1s0x477840c070845035:0xe8b466d4134b574c",
        "lat": 46.4953124,
        "lng": 11.8688047,
        "_id": 71,
        "google_place_id": "ChIJNVCEcMBAeEcRTFdLE9RmtOg"
    },
    {
        "title": "Living Spaces",
        "note": "",
        "url": "https://www.google.com/maps/place/Living+Spaces/data=!4m2!3m1!1s0x80c2b8fec9c60577:0x4822fca2ab2edbb6",
        "lat": 34.0472677,
        "lng": -118.341064,
        "_id": 72,
        "google_place_id": "ChIJdwXGyf64woARttsuq6L8Ikg"
    },
    {
        "title": "Modani Furniture Los Angeles",
        "note": "",
        "url": "https://www.google.com/maps/place/Modani+Furniture+Los+Angeles/data=!4m2!3m1!1s0x80c2bea3b0cf1753:0x95be2a3aafd8ad8b",
        "lat": 34.079467099999995,
        "lng": -118.34377479999999,
        "_id": 73,
        "google_place_id": "ChIJUxfPsKO-woARi63YrzoqvpU"
    },
    {
        "title": "west elm",
        "note": "",
        "url": "https://www.google.com/maps/place/west+elm/data=!4m2!3m1!1s0x80c2b94ad886eb53:0x6958dab19b037057",
        "lat": 34.041640799999996,
        "lng": -118.2564823,
        "_id": 74,
        "google_place_id": "ChIJNz-s1F_HwoARhUTJevovio0"
    },
    {
        "title": "Scandinavian Designs",
        "note": "",
        "url": "https://www.google.com/maps/place/Scandinavian+Designs/data=!4m2!3m1!1s0x80c2b981813909f3:0xa76aba743f164fa",
        "lat": 34.0301271,
        "lng": -118.3861371,
        "_id": 75,
        "google_place_id": "ChIJ8wk5gYG5woAR-mTxQ6erdgo"
    },
    {
        "title": "Room & Board",
        "note": "",
        "url": "https://www.google.com/maps/place/Room+%26+Board/data=!4m2!3m1!1s0x80c2b983a852aacb:0x8b589df9e5c26e24",
        "lat": 34.0301333,
        "lng": -118.3847833,
        "_id": 76,
        "google_place_id": "ChIJy6pSqIO5woARJG7C5fmdWIs"
    },
    {
        "title": "Blueprint Furniture",
        "note": "",
        "url": "https://www.google.com/maps/place/Blueprint+Furniture/data=!4m2!3m1!1s0x80c2b9683664c343:0x2e3f3f0b16de6206",
        "lat": 34.0106361,
        "lng": -118.2316733,
        "_id": 77,
        "google_place_id": "ChIJ6dOolBnTwoARJrGJZkJ1Mbs"
    },
    {
        "title": "Crate and Barrel",
        "note": "",
        "url": "https://www.google.com/maps/place/Crate+and+Barrel/data=!4m2!3m1!1s0x80c2bc07bbd91a09:0x610e402289bdaf9b",
        "lat": 34.0708645,
        "lng": -118.402363,
        "_id": 78,
        "google_place_id": "ChIJCRrZuwe8woARm6-9iSJADmE"
    },
    {
        "title": "Kanda Massage",
        "note": "really fucking good deep thai massage",
        "url": "https://www.google.com/maps/place/Kanda+Massage/data=!4m2!3m1!1s0x3054fe7e19005f59:0xb68759388b50d3eb",
        "lat": 36.98091,
        "lng": -122.017962,
        "_id": 79,
        "google_place_id": "ChIJbVZK-yJAjoARL2-3FHXcy9Q"
    },
    {
        "title": "Ko Ma Beach",
        "note": "one of the most beautiful beaches",
        "url": "https://www.google.com/maps/place/Ko+Ma+Beach/data=!4m2!3m1!1s0x3055011268c3daff:0xe2aa3a231d9c2a9b",
        "lat": 9.7986127,
        "lng": 99.9800743,
        "_id": 80,
        "google_place_id": "ChIJ_9rDaBIBVTARmyqcHSM6quI"
    },
    {
        "title": "Hollystone",
        "note": "",
        "url": "https://www.google.com/maps/place/Hollystone/data=!4m2!3m1!1s0x3054fe01105665d1:0x78601202f2deebe2",
        "lat": 9.750032599999999,
        "lng": 99.9878402,
        "_id": 81,
        "google_place_id": "ChIJ0WVWEAH-VDAR4uve8gISYHg"
    },
    {
        "title": "GUYS BAR",
        "note": "",
        "url": "https://www.google.com/maps/place/GUYS+BAR/data=!4m2!3m1!1s0x3054fd8a9b55ca1b:0x60bcb0ba237f7274",
        "lat": 51.5040713,
        "lng": -0.08796999999999999,
        "_id": 82,
        "google_place_id": "ChIJvZIDWVcDdkgRDDmI1c_b3W4"
    },
    {
        "title": "Noppond Pharmacy",
        "note": "",
        "url": "https://www.google.com/maps/place/Noppond+Pharmacy/data=!4m2!3m1!1s0x3054fe7e3fff291b:0x9fc77c6df182d98d",
        "lat": 9.712032599999999,
        "lng": 99.9870337,
        "_id": 83,
        "google_place_id": "ChIJGyn_P37-VDARjdmC8W18x58"
    },
    {
        "title": "Jinna's Massage",
        "note": "",
        "url": "https://www.google.com/maps/place/Jinna's+Massage/data=!4m2!3m1!1s0x3054fe7e1334bea5:0x2c974db3122f3aed",
        "lat": 34.3097849,
        "lng": -118.4336348,
        "_id": 84,
        "google_place_id": "ChIJ_2BiigyPwoAR36xRH1IKw2E"
    },
    {
        "title": "Sanya Massage",
        "note": "",
        "url": "https://www.google.com/maps/place/Sanya+Massage/data=!4m2!3m1!1s0x3054fe7fd2abde2b:0xdde0a0250e8229eb",
        "lat": 34.0042539,
        "lng": -118.40875210000002,
        "_id": 85,
        "google_place_id": "ChIJMVlrXRa6woAR7w9G5LTl0W8"
    },
    {
        "title": "WILD WOOD Beach Fitness",
        "note": "",
        "url": "https://www.google.com/maps/place/WILD+WOOD+Beach+Fitness/data=!4m2!3m1!1s0x3054fd9f2d0728d9:0xada07cdf37130ec6",
        "lat": 9.698831,
        "lng": 100.02228769999999,
        "_id": 86,
        "google_place_id": "ChIJ2SgHLZ_9VDARxg4TN998oK0"
    },
    {
        "title": "Sabaii Bay Gym",
        "note": "",
        "url": "https://www.google.com/maps/place/Sabaii+Bay+Gym/data=!4m2!3m1!1s0x3054fd9a18b638ed:0xbe51e865b242ad19",
        "lat": 9.706594899999999,
        "lng": 100.00235029999999,
        "_id": 87,
        "google_place_id": "ChIJ7Ti2GJr9VDARGa1CsmXoUb4"
    },
    {
        "title": "NASHE MESTO",
        "note": "",
        "url": "https://www.google.com/maps/place/NASHE+MESTO/data=!4m2!3m1!1s0x3054fd7530af81ed:0x2f6e2d3c0b60c7e1",
        "lat": 9.7127724,
        "lng": 99.9983695,
        "_id": 88,
        "google_place_id": "ChIJ7YGvMHX9VDAR4cdgCzwtbi8"
    },
    {
        "title": "The Wanderlust Hostel",
        "note": "",
        "url": "https://www.google.com/maps/place/The+Wanderlust+Hostel/data=!4m2!3m1!1s0x3054fd44f32e9505:0x607b0ef9c36388ca",
        "lat": 38.546243499999996,
        "lng": -106.9339006,
        "_id": 89,
        "google_place_id": "ChIJF0aVOMKSP4cRlVCz61zjUws"
    },
    {
        "title": "Kuan Yin Temple (Chinese Temple)",
        "note": "",
        "url": "https://www.google.com/maps/place/Kuan+Yin+Temple+(Chinese+Temple)/data=!4m2!3m1!1s0x305502119fb1e4d5:0xecad1899a711fd2b",
        "lat": 34.073391099999995,
        "lng": -118.2068624,
        "_id": 90,
        "google_place_id": "ChIJhUahaX_GwoAR1ZuP1kJwQUU"
    },
    {
        "title": "Koh Raham",
        "note": "",
        "url": "https://www.google.com/maps/place/Koh+Raham/data=!4m2!3m1!1s0x305501c41ddca029:0x821c1d2b7c826b64",
        "lat": 9.7720927,
        "lng": 99.9615176,
        "_id": 91,
        "google_place_id": "ChIJKaDcHcQBVTARZGuCfCsdHII"
    },
    {
        "title": "Bodega Pool Party Koh Phangan",
        "note": "meet people here",
        "url": "https://www.google.com/maps/place/Bodega+Pool+Party+Koh+Phangan/data=!4m2!3m1!1s0x3054fd114ea5034d:0x93e7473555c7e2f1",
        "lat": 9.7080766,
        "lng": 100.000412,
        "_id": 92,
        "google_place_id": "ChIJTQOlThH9VDAR8eLHVTVH55M"
    },
    {
        "title": "Zen Beach",
        "note": "",
        "url": "https://www.google.com/maps/place/Zen+Beach/data=!4m2!3m1!1s0x30550113cd78e5a7:0x80ffe9ef68c02cb7",
        "lat": 33.7724329,
        "lng": -118.1922424,
        "_id": 93,
        "google_place_id": "ChIJFV0VcTgx3YAR9nEeFncN22w"
    },
    {
        "title": "Start of Khao Ra hiking trail",
        "note": "",
        "url": "https://www.google.com/maps/place/Start+of+Khao+Ra+hiking+trail/data=!4m2!3m1!1s0x3054fdec1e73546f:0x9b3454f9f073db9a",
        "lat": 9.7489171,
        "lng": 100.00976569999999,
        "_id": 94,
        "google_place_id": "ChIJb1RzHuz9VDARmttz8PlUNJs"
    },
    {
        "title": "Rin Nai Beach",
        "note": "",
        "url": "https://www.google.com/maps/place/Rin+Nai+Beach/data=!4m2!3m1!1s0x3054fca5e66a408f:0x14854c8087a0f07b",
        "lat": 9.6717456,
        "lng": 100.0677005,
        "_id": 95,
        "google_place_id": "ChIJj0Bq5qX8VDARe_Cgh4BMhRQ"
    },
    {
        "title": "Wat Khao Tham",
        "note": "",
        "url": "https://www.google.com/maps/place/Wat+Khao+Tham/data=!4m2!3m1!1s0x3054fc4b1a60caeb:0x9635e28824941443",
        "lat": 9.7077791,
        "lng": 100.01627769999999,
        "_id": 96,
        "google_place_id": "ChIJ68pgGkv8VDARQxSUJIjiNZY"
    },
    {
        "title": "Wat Phu Khao Noi",
        "note": "",
        "url": "https://www.google.com/maps/place/Wat+Phu+Khao+Noi/data=!4m2!3m1!1s0x3054fe0a7f3730d1:0x91c98aac7944e089",
        "lat": 9.734147199999999,
        "lng": 99.9903222,
        "_id": 97,
        "google_place_id": "ChIJ0TA3fwr-VDARieBEeayKyZE"
    },
    {
        "title": "Nang Yuan Island",
        "note": "speedboat tour to snorkeling",
        "url": "https://www.google.com/maps/place/Nang+Yuan+Island/data=!4m2!3m1!1s0x30559f52daf73331:0x6d456445aacdd179",
        "lat": 10.121997799999999,
        "lng": 99.8128863,
        "_id": 98,
        "google_place_id": "ChIJMTP32lKfVTARedHNqkVkRW0"
    },
    {
        "title": "Headtrail for Bottle Beach",
        "note": "",
        "url": "https://www.google.com/maps/place/Headtrail+for+Bottle+Beach/data=!4m2!3m1!1s0x30550329f30cb481:0x10bb24ba98bde512",
        "lat": 9.7991962,
        "lng": 100.0199403,
        "_id": 99,
        "google_place_id": "ChIJgbQM8ykDVTAREuW9mLokuxA"
    },
    {
        "title": "Trekking",
        "note": "",
        "url": "https://www.google.com/maps/place/Trekking/data=!4m2!3m1!1s0x305503d8ed5698eb:0xc56fe7ef0ad5e6c9",
        "lat": 34.158197799999996,
        "lng": -118.37125900000001,
        "_id": 100,
        "google_place_id": "ChIJA7moQTK-woARFIiJDVNKvYg"
    },
    {
        "title": "Chaloklum Beach",
        "note": "",
        "url": "https://www.google.com/maps/place/Chaloklum+Beach/data=!4m2!3m1!1s0x305503e3e6a55545:0xb5e643b4fc028c66",
        "lat": 9.7868687,
        "lng": 100.0042816,
        "_id": 101,
        "google_place_id": "ChIJRVWl5uMDVTARZowC_LRD5rU"
    },
    {
        "title": "Malibu Beach",
        "note": "",
        "url": "https://www.google.com/maps/place/Malibu+Beach/data=!4m2!3m1!1s0x3055022fb58c7933:0xeae7d17dab7349d8",
        "lat": 34.0380585,
        "lng": -118.69234379999997,
        "_id": 102,
        "google_place_id": "ChIJP9YI-akd6IARWozqsnEtt5M"
    },
    {
        "title": "Thong Sala Saturday Local Market",
        "note": "",
        "url": "https://www.google.com/maps/place/Thong+Sala+Saturday+Local+Market/data=!4m2!3m1!1s0x3054ff613e969755:0x6c356e4408dfaa08",
        "lat": 9.7091347,
        "lng": 99.98981239999999,
        "_id": 103,
        "google_place_id": "ChIJVZeWPmH_VDARCKrfCERuNWw"
    },
    {
        "title": "Namtok Than Sadet National Park",
        "note": "",
        "url": "https://www.google.com/maps/place/Namtok+Than+Sadet+National+Park/data=!4m2!3m1!1s0x3054fd5d8d66c823:0xce07da79ace085eb",
        "lat": 9.745640999999999,
        "lng": 100.059303,
        "_id": 104,
        "google_place_id": "ChIJI8hmjV39VDAR64XgrHnaB84"
    },
    {
        "title": "Phaeng Noi Waterfall",
        "note": "",
        "url": "https://www.google.com/maps/place/Phaeng+Noi+Waterfall/data=!4m2!3m1!1s0x3054fd94da246427:0xb511cc3e3a25945c",
        "lat": 9.7349778,
        "lng": 100.0144052,
        "_id": 105,
        "google_place_id": "ChIJJ2Qk2pT9VDARXJQlOj7MEbU"
    },
    {
        "title": "Paradise Waterfall",
        "note": "",
        "url": "https://www.google.com/maps/place/Paradise+Waterfall/data=!4m2!3m1!1s0x3055035c0b78770f:0x28684876e9c047af",
        "lat": 34.2144263,
        "lng": -118.910559,
        "_id": 106,
        "google_place_id": "ChIJDY3HFfcw6IARkSYpLY92o4M"
    },
    {
        "title": "Mae Haad Beach",
        "note": "snorkeling",
        "url": "https://www.google.com/maps/place/Mae+Haad+Beach/data=!4m2!3m1!1s0x305501fd3fa45143:0x26eda11ff06f8fda",
        "lat": 9.7946451,
        "lng": 99.97941879999999,
        "_id": 107,
        "google_place_id": "ChIJQ1GkP_0BVTAR2o9v8B-h7SY"
    },
    {
        "title": "Thong Nai Pan Beach",
        "note": "sunbathing",
        "url": "https://www.google.com/maps/place/Thong+Nai+Pan+Beach/data=!4m2!3m1!1s0x305502ea53f1da59:0xfba00118969b6845",
        "lat": 9.7776979,
        "lng": 100.05592329999999,
        "_id": 108,
        "google_place_id": "ChIJWdrxU-oCVTARRWiblhgBoPs"
    },
    {
        "title": "Bottle Beach Viewpoint",
        "note": "short trek to this viewpoint",
        "url": "https://www.google.com/maps/place/Bottle+Beach+Viewpoint/data=!4m2!3m1!1s0x305502f99e4c3f95:0x6a29519cf6580df4",
        "lat": 9.7887787,
        "lng": 100.0403532,
        "_id": 109,
        "google_place_id": "ChIJlT9MnvkCVTAR9A1Y9pxRKWo"
    },
    {
        "title": "Ang Thong",
        "note": "",
        "url": "https://www.google.com/maps/place/Ang+Thong/data=!4m2!3m1!1s0x3054f706a4c45527:0x40223bc2c3826c0",
        "lat": 14.658366199999998,
        "lng": 100.3947116,
        "_id": 110,
        "google_place_id": "ChIJe5QwaqIP4jARd94r8cW6_wg"
    },
    {
        "title": "Secret Mountain Viewpoint",
        "note": "",
        "url": "https://www.google.com/maps/place/Secret+Mountain+Viewpoint/data=!4m2!3m1!1s0x3054fdb803590229:0x8680fef65f77ffc7",
        "lat": 9.721182299999999,
        "lng": 100.0142359,
        "_id": 111,
        "google_place_id": "ChIJKQJZA7j9VDARx_93X_b-gIY"
    },
    {
        "title": "Concours Auto Spa",
        "note": "",
        "url": "https://www.google.com/maps/place/Concours+Auto+Spa/data=!4m2!3m1!1s0x80c2b54b64fc3889:0x93a2ebcefe43d90",
        "lat": 33.846208499999996,
        "lng": -118.3171106,
        "_id": 112,
        "google_place_id": "ChIJiTj8ZEu1woARkD3k77wuOgk"
    },
    {
        "title": "Wrap Labs",
        "note": "",
        "url": "https://www.google.com/maps/place/Wrap+Labs/data=!4m2!3m1!1s0x80e82518a0dbf3d3:0xfd63acd258ae0356",
        "lat": 34.156542699999996,
        "lng": -118.83073499999999,
        "_id": 113,
        "google_place_id": "ChIJ0_PboBgl6IARVgOuWNKsY_0"
    },
    {
        "title": "VIP Auto Customs Inc.",
        "note": "",
        "url": "https://www.google.com/maps/place/VIP+Auto+Customs+Inc./data=!4m2!3m1!1s0x80c2dca5c8e51c67:0x63c57b085a278bfb",
        "lat": 34.1513906,
        "lng": -118.09829259999998,
        "_id": 114,
        "google_place_id": "ChIJZxzlyKXcwoAR-4snWgh7xWM"
    },
    {
        "title": "VALLEY CLEAR BRA",
        "note": "",
        "url": "https://www.google.com/maps/place/VALLEY+CLEAR+BRA/data=!4m2!3m1!1s0x80c29cbf1781cf59:0xfe012b058b27239f",
        "lat": 34.2530516,
        "lng": -118.5968946,
        "_id": 115,
        "google_place_id": "ChIJWc-BF7-cwoARnyMniwUrAf4"
    },
    {
        "title": "Sticker City",
        "note": "",
        "url": "https://www.google.com/maps/place/Sticker+City/data=!4m2!3m1!1s0x80c297c8def27369:0x148fb5b7e7d3450c",
        "lat": 34.155851999999996,
        "lng": -118.448446,
        "_id": 116,
        "google_place_id": "ChIJaXPy3siXwoARDEXT57e1jxQ"
    },
    {
        "title": "Unique Auto Films",
        "note": "",
        "url": "https://www.google.com/maps/place/Unique+Auto+Films/data=!4m2!3m1!1s0x80c29972f7489253:0xe11e38c384faa977",
        "lat": 34.1794843,
        "lng": -118.5422773,
        "_id": 117,
        "google_place_id": "ChIJU5JI93KZwoARd6n6hMM4HuE"
    },
    {
        "title": "Ghost Shield Film",
        "note": "",
        "url": "https://www.google.com/maps/place/Ghost+Shield+Film/data=!4m2!3m1!1s0x80e830b4c28203d1:0x9f8882f9bd513d33",
        "lat": 34.1939075,
        "lng": -118.9310514,
        "_id": 118,
        "google_place_id": "ChIJ0QOCwrQw6IARMz1RvfmCiJ8"
    },
    {
        "title": "Silver Lake Tint",
        "note": "",
        "url": "https://www.google.com/maps/place/Silver+Lake+Tint/data=!4m2!3m1!1s0x80c2c0d155555555:0xbcf887eb3202ea21",
        "lat": 34.103823,
        "lng": -118.27302399999999,
        "_id": 119,
        "google_place_id": "ChIJVVVVVdHAwoARIeoCMuuH-Lw"
    },
    {
        "title": "Beverly Tint Shop",
        "note": "",
        "url": "https://www.google.com/maps/place/Beverly+Tint+Shop/data=!4m2!3m1!1s0x80c2b88760add897:0xbe95818b94781b5f",
        "lat": 34.071038,
        "lng": -118.2798185,
        "_id": 120,
        "google_place_id": "ChIJl9itYIe4woARXxt4lIuBlb4"
    },
    {
        "title": "Bulletproof Automotive \u00ae",
        "note": "",
        "url": "https://www.google.com/maps/place/Bulletproof+Automotive+%C2%AE/data=!4m2!3m1!1s0x80c2c7c84e7c5c49:0xc60ca014851c0818",
        "lat": 33.920376399999995,
        "lng": -118.33478,
        "_id": 121,
        "google_place_id": "ChIJSVx8TsjHwoARGAgchRSgDMY"
    },
    {
        "title": "Doi Nok Pagoda",
        "note": "nice views ",
        "url": "https://www.google.com/maps/place/Doi+Nok+Pagoda/data=!4m2!3m1!1s0x30da44ee8e6ebf9b:0xa6aa43c5086bd870",
        "lat": 18.858944599999997,
        "lng": 98.68982779999999,
        "_id": 122,
        "google_place_id": "ChIJm79uju5E2jARcNhrCMVDqqY"
    },
    {
        "title": "The Canopy Walks",
        "note": "",
        "url": "https://www.google.com/maps/place/The+Canopy+Walks/data=!4m2!3m1!1s0x30da3f371b17cf19:0x9dd247b72b58b006",
        "lat": 41.606860399999995,
        "lng": -81.3050525,
        "_id": 123,
        "google_place_id": "ChIJhQPEJqGnMYgRXKcAmgcim-A"
    },
    {
        "title": "Mae Sap Cave",
        "note": "",
        "url": "https://www.google.com/maps/place/Mae+Sap+Cave/data=!4m2!3m1!1s0x30da445cee064f47:0xa19629bc0404c6e2",
        "lat": 18.8608521,
        "lng": 98.7129272,
        "_id": 124,
        "google_place_id": "ChIJR08G7lxE2jAR4sYEBLwplqE"
    },
    {
        "title": "Mon Jam",
        "note": "",
        "url": "https://www.google.com/maps/place/Mon+Jam/data=!4m2!3m1!1s0x30da406380ac6161:0xabb0ec025d7e8299",
        "lat": 18.9357695,
        "lng": 98.82242010000002,
        "_id": 125,
        "google_place_id": "ChIJYWGsgGNA2jARmYJ-XQLssKs"
    },
    {
        "title": "Bannok Coffee Roasters",
        "note": "",
        "url": "https://www.google.com/maps/place/Bannok+Coffee+Roasters/data=!4m2!3m1!1s0x30da36e287eb08c7:0x262feb54f9966d4a",
        "lat": 18.7364791,
        "lng": 98.8997526,
        "_id": 126,
        "google_place_id": "ChIJxwjrh-I22jARSm2W-VTrLyY"
    },
    {
        "title": "Samoeng Viewpoint",
        "note": "",
        "url": "https://www.google.com/maps/place/Samoeng+Viewpoint/data=!4m2!3m1!1s0x30da46daae40ffdf:0xe08c313ca2cb90c1",
        "lat": 18.872740699999998,
        "lng": 98.7816873,
        "_id": 127,
        "google_place_id": "ChIJ3_9ArtpG2jARwZDLojwxjOA"
    },
    {
        "title": "Queen Sirikit Botanic Garden",
        "note": "",
        "url": "https://www.google.com/maps/place/Queen+Sirikit+Botanic+Garden/data=!4m2!3m1!1s0x30da3f36a0c5d5d3:0xa5238f23f6213c2f",
        "lat": 18.8880345,
        "lng": 98.8618687,
        "_id": 128,
        "google_place_id": "ChIJ09XFoDY_2jARLzwh9iOPI6U"
    },
    {
        "title": "River Rock Cafe Hill",
        "note": "waterfall similar to Mae Sa but better with coffee",
        "url": "https://www.google.com/maps/place/River+Rock+Cafe+Hill/data=!4m2!3m1!1s0x30da3fcb0e5ff9fd:0xfff6a069631acb02",
        "lat": 18.900109399999998,
        "lng": 98.8702259,
        "_id": 129,
        "google_place_id": "ChIJ_flfDss_2jARAssaY2mg9v8"
    },
    {
        "title": "Fleur Cafe & Eatery",
        "note": "",
        "url": "https://www.google.com/maps/place/Fleur+Cafe+%26+Eatery/data=!4m2!3m1!1s0x30da3fffc122829b:0xf53c297e54076946",
        "lat": 34.0473253,
        "lng": -118.27042079999998,
        "_id": 130,
        "google_place_id": "ChIJEf0asy3HwoARckC6kk2ijfs"
    },
    {
        "title": "WHY Coffee and Bar",
        "note": "",
        "url": "https://www.google.com/maps/place/WHY+Coffee+and+Bar/data=!4m2!3m1!1s0x30da3fa105e35f2f:0x587b8d698eb26cac",
        "lat": 18.910029299999998,
        "lng": 98.91787190000001,
        "_id": 131,
        "google_place_id": "ChIJL1_jBaE_2jARrGyyjmmNe1g"
    },
    {
        "title": "Jalama Beach County Park",
        "note": "",
        "url": "https://www.google.com/maps/place/Jalama+Beach+County+Park/data=!4m2!3m1!1s0x80eea195bd1485f7:0x10414e3fb599dfbe",
        "lat": 34.5108209,
        "lng": -120.5012803,
        "_id": 132,
        "google_place_id": "ChIJ94UUvZWh7oARvt-ZtT9OQRA"
    },
    {
        "title": "Foxen Vineyard & Winery",
        "note": "",
        "url": "https://www.google.com/maps/place/Foxen+Vineyard+%26+Winery/data=!4m2!3m1!1s0x80ec08da3d1e3741:0xca605aff5c7abbe6",
        "lat": 34.8201921,
        "lng": -120.2302395,
        "_id": 133,
        "google_place_id": "ChIJQTcePdoI7IAR5rt6XP9aYMo"
    },
    {
        "title": "Rusack Vineyards",
        "note": "",
        "url": "https://www.google.com/maps/place/Rusack+Vineyards/data=!4m2!3m1!1s0x80e955239f3c6409:0x814f57e0cd6b99ff",
        "lat": 34.6376436,
        "lng": -120.14183359999998,
        "_id": 134,
        "google_place_id": "ChIJCWQ8nyNV6YAR_5lrzeBXT4E"
    },
    {
        "title": "Sanford Winery",
        "note": "",
        "url": "https://www.google.com/maps/place/Sanford+Winery/data=!4m2!3m1!1s0x80eea97ec4307619:0xc327396e247b25b4",
        "lat": 34.6088108,
        "lng": -120.3289581,
        "_id": 135,
        "google_place_id": "ChIJGXYwxH6p7oARtCV7JG45J8M"
    },
    {
        "title": "Barker Dam",
        "note": "",
        "url": "https://www.google.com/maps/place/Barker+Dam/data=!4m2!3m1!1s0x80dae9fd41e2ec05:0x1b7f6b403b975d0a",
        "lat": 34.0308308,
        "lng": -116.14628979999999,
        "_id": 136,
        "google_place_id": "ChIJBeziQf3p2oARCl2XO0Brfxs"
    },
    {
        "title": "Hidden Valley Nature Trail",
        "note": "",
        "url": "https://www.google.com/maps/place/Hidden+Valley+Nature+Trail/data=!4m2!3m1!1s0x80dae9c4343cfcf3:0xfcbfbd65f973ca3f",
        "lat": 34.0124685,
        "lng": -116.16805679999997,
        "_id": 137,
        "google_place_id": "ChIJ8_w8NMTp2oARP8pz-WW9v_w"
    },
    {
        "title": "Cholla Cactus Garden",
        "note": "",
        "url": "https://www.google.com/maps/place/Cholla+Cactus+Garden/data=!4m2!3m1!1s0x80da91e5fc0bef27:0x1de4cbeac6fb94b3",
        "lat": 33.9247516,
        "lng": -115.929411,
        "_id": 138,
        "google_place_id": "ChIJJ-8L_OWR2oARs5T7xurL5B0"
    },
    {
        "title": "La Soplaera Waterfall",
        "note": "",
        "url": "https://www.google.com/maps/place/La+Soplaera+Waterfall/data=!4m2!3m1!1s0x8c02d34802a7d7d3:0xdacd7aafe51338d8",
        "lat": 18.0959121,
        "lng": -66.73672510000002,
        "_id": 139,
        "google_place_id": "ChIJ09enAkjTAowR2DgT5a96zdo"
    },
    {
        "title": "Mirador de Guajataca",
        "note": "",
        "url": "https://www.google.com/maps/place/Mirador+de+Guajataca/data=!4m2!3m1!1s0x8c02ea8a80b9095b:0x30a0218c5ed3b8f9",
        "lat": 18.4889318,
        "lng": -66.95144470000001,
        "_id": 140,
        "google_place_id": "ChIJWwm5gIrqAowR-bjTXowhoDA"
    },
    {
        "title": "Cueva Ventana",
        "note": "",
        "url": "https://www.google.com/maps/place/Cueva+Ventana/data=!4m2!3m1!1s0x8c02de9503ef96bb:0x4d5b3c2239523ddf",
        "lat": 18.4889723,
        "lng": -66.93442139999999,
        "_id": 141,
        "google_place_id": "ChIJowEmXGPrAowRP1_PLScUZNY"
    },
    {
        "title": "Cerro Las Tetas",
        "note": "",
        "url": "https://www.google.com/maps/place/Cerro+Las+Tetas/data=!4m2!3m1!1s0x8c034a095044c82b:0x1c1d0904ebda9294",
        "lat": 18.093332999999998,
        "lng": -66.231389,
        "_id": 142,
        "google_place_id": "ChIJK8hEUAlKA4wRlJLa6wQJHRw"
    },
    {
        "title": "Cerro de Punta Trailhead",
        "note": "",
        "url": "https://www.google.com/maps/place/Cerro+de+Punta+Trailhead/data=!4m2!3m1!1s0x8c0329c6f24be2ff:0x2cf49b7d8a7def46",
        "lat": 18.1694563,
        "lng": -66.5878402,
        "_id": 143,
        "google_place_id": "ChIJ_-JL8sYpA4wRRu99in2b9Cw"
    },
    {
        "title": "Reserva Marina La Cueva del Indio",
        "note": "",
        "url": "https://www.google.com/maps/place/Reserva+Marina+La+Cueva+del+Indio/data=!4m2!3m1!1s0x8c02e1bf646927af:0xbdf404b7618355d1",
        "lat": 18.4911758,
        "lng": -66.6407952,
        "_id": 144,
        "google_place_id": "ChIJrydpZL_hAowR0VWDYbcE9L0"
    },
    {
        "title": "Sandra Farms Coffee",
        "note": "",
        "url": "https://www.google.com/maps/place/Sandra+Farms+Coffee/data=!4m2!3m1!1s0x8c02d1ddf598d6ff:0x2baa4d88436a3ec9",
        "lat": 18.2100086,
        "lng": -66.8193036,
        "_id": 145,
        "google_place_id": "ChIJ_9aY9d3RAowRyT5qQ4hNqis"
    },
    {
        "title": "Hacienda San Pedro - Cafe",
        "note": "",
        "url": "https://www.google.com/maps/place/Hacienda+San+Pedro+-+Cafe/data=!4m2!3m1!1s0x8c0328f69e3af191:0xacef4b1dc22543e5",
        "lat": 18.4469101,
        "lng": -66.0679083,
        "_id": 146,
        "google_place_id": "ChIJHSZeT0pvA4wRkBWrB35_7j8"
    },
    {
        "title": "Ocean Lab Brewing Co.",
        "note": "draft beer, local style food",
        "url": "https://www.google.com/maps/place/Ocean+Lab+Brewing+Co./data=!4m2!3m1!1s0x8c0365cd24844991:0xf2090e97e2fc8446",
        "lat": 18.4470913,
        "lng": -65.9996603,
        "_id": 147,
        "google_place_id": "ChIJkUmEJM1lA4wRRoT84pcOCfI"
    },
    {
        "title": "La Casita Blanca",
        "note": "like walking into grandma\u2019s house",
        "url": "https://www.google.com/maps/place/La+Casita+Blanca/data=!4m2!3m1!1s0x8c036f5372d88091:0x1411b3c260629a6c",
        "lat": 18.4433854,
        "lng": -66.0536899,
        "_id": 148,
        "google_place_id": "ChIJkYDYclNvA4wRbJpiYMKzERQ"
    },
    {
        "title": "Atuh Beach",
        "note": "",
        "url": "https://www.google.com/maps/place/Atuh+Beach/data=!4m2!3m1!1s0x2dd2779b403c8185:0x25d68418b583cab3",
        "lat": -8.7734116,
        "lng": 115.62181869999998,
        "_id": 149,
        "google_place_id": "ChIJhYE8QJt30i0Rs8qDtRiE1iU"
    },
    {
        "title": "Tembeling Springs",
        "note": "",
        "url": "https://www.google.com/maps/place/Tembeling+Springs/data=!4m2!3m1!1s0x2dd271d3a3dc3ed5:0xac65e4abded76d14",
        "lat": -8.770746299999999,
        "lng": 115.49685989999999,
        "_id": 150,
        "google_place_id": "ChIJ1T7co9Nx0i0RFG3X3qvkZaw"
    },
    {
        "title": "Banah Cliff Point",
        "note": "",
        "url": "https://www.google.com/maps/place/Banah+Cliff+Point/data=!4m2!3m1!1s0x2dd2703c9e92668b:0xebfda3dd934d2028",
        "lat": -8.7670731,
        "lng": 115.48690359999999,
        "_id": 151,
        "google_place_id": "ChIJi2aSnjxw0i0RKCBNk92j_es"
    },
    {
        "title": "Crystal Bay Nusa Penida",
        "note": "",
        "url": "https://www.google.com/maps/place/Crystal+Bay+Nusa+Penida/data=!4m2!3m1!1s0x2dd26e084c2a5fe3:0x4d4e5b852751c763",
        "lat": -8.7151611,
        "lng": 115.45905649999999,
        "_id": 152,
        "google_place_id": "ChIJ418qTAhu0i0RY8dRJ4VbTk0"
    },
    {
        "title": "Broken Beach",
        "note": "",
        "url": "https://www.google.com/maps/place/Broken+Beach/data=!4m2!3m1!1s0x2dd26fdf21a72dcb:0x2fdb3f30123947a5",
        "lat": -8.7327938,
        "lng": 115.4508319,
        "_id": 153,
        "google_place_id": "ChIJyy2nId9v0i0RpUc5EjA_2y8"
    },
    {
        "title": "Angel Billabong",
        "note": "",
        "url": "https://www.google.com/maps/place/Angel+Billabong/data=!4m2!3m1!1s0x2dd26f817e9cb20b:0x168ba6d3daf31579",
        "lat": -8.7335003,
        "lng": 115.44897879999998,
        "_id": 154,
        "google_place_id": "ChIJC7KcfoFv0i0ReRXz2tOmixY"
    },
    {
        "title": "LE kopi",
        "note": "",
        "url": "https://www.google.com/maps/place/LE+kopi/data=!4m2!3m1!1s0x2dd27375b55862d9:0x374be591c8320805",
        "lat": 33.9970124,
        "lng": -118.4299934,
        "_id": 155,
        "google_place_id": "ChIJ4dKZaWa6woARBI6IK8Vne8M"
    },
    {
        "title": "Diamond Beach Nusa Penida",
        "note": "",
        "url": "https://www.google.com/maps/place/Diamond+Beach+Nusa+Penida/data=!4m2!3m1!1s0x2dd277161f77ae31:0xdad8747b0363d8d",
        "lat": -8.7751348,
        "lng": 115.62022819999999,
        "_id": 156,
        "google_place_id": "ChIJMa53HxZ30i0RjT02sEeHrQ0"
    },
    {
        "title": "Kelingking Beach Nusa Penida",
        "note": "go after 3pm, less crowded",
        "url": "https://www.google.com/maps/place/Kelingking+Beach+Nusa+Penida/data=!4m2!3m1!1s0x2dd26f1616cd2cc7:0xee84b7df0afbff19",
        "lat": -8.7503865,
        "lng": 115.47262180000001,
        "_id": 157,
        "google_place_id": "ChIJxyzNFhZv0i0RGf_7Ct-3hO4"
    },
    {
        "title": "Horses of Gili",
        "note": "",
        "url": "https://www.google.com/maps/place/Horses+of+Gili/data=!4m2!3m1!1s0x2dcde0a6407e10cb:0x7f9029f6a26eb1e5",
        "lat": -8.3438655,
        "lng": 116.03938889999999,
        "_id": 158,
        "google_place_id": "ChIJyxB-QKbgzS0R5bFuovYpkH8"
    },
    {
        "title": "Turtle Shore.",
        "note": "east side of island has sea turtles ",
        "url": "https://www.google.com/maps/place/Turtle+Shore./data=!4m2!3m1!1s0x2dcde0a7afcb2959:0x690de1b536950b6a",
        "lat": 33.9948737,
        "lng": -117.7568336,
        "_id": 159,
        "google_place_id": "ChIJr-S5REYtw4ARcWPPZhcPicE"
    },
    {
        "title": "Sade Village",
        "note": "",
        "url": "https://www.google.com/maps/place/Sade+Village/data=!4m2!3m1!1s0x2dcda9172d983baf:0xfa9eed5a2752a97c",
        "lat": -8.8393082,
        "lng": 116.29198710000001,
        "_id": 160,
        "google_place_id": "ChIJrzuYLRepzS0RfKlSJ1rtnvo"
    },
    {
        "title": "Mount Rinjani",
        "note": "",
        "url": "https://www.google.com/maps/place/Mount+Rinjani/data=!4m2!3m1!1s0x2dcc2d800216cccf:0x3c03cdbf11d30a1e",
        "lat": -8.4112952,
        "lng": 116.45734879999999,
        "_id": 161,
        "google_place_id": "ChIJz8wWAoAtzC0RHgrTEb_NAzw"
    },
    {
        "title": "Hotsprings Rinjani",
        "note": "",
        "url": "https://www.google.com/maps/place/Hotsprings+Rinjani/data=!4m2!3m1!1s0x2dcc2d4cbed01c37:0x1d14ed3f9595018d",
        "lat": -8.3897473,
        "lng": 116.42053759999999,
        "_id": 162,
        "google_place_id": "ChIJNxzQvkwtzC0RjQGVlT_tFB0"
    },
    {
        "title": "Goa Giri Putri Temple",
        "note": "",
        "url": "https://www.google.com/maps/place/Goa+Giri+Putri+Temple/data=!4m2!3m1!1s0x2dd276a14dbda87f:0xc4a8a48f281af2f3",
        "lat": -8.7089515,
        "lng": 115.5861147,
        "_id": 163,
        "google_place_id": "ChIJf6i9TaF20i0R8_IaKI-kqMQ"
    },
    {
        "title": "Guyangan Waterfall Nusa Penida",
        "note": "",
        "url": "https://www.google.com/maps/place/Guyangan+Waterfall+Nusa+Penida/data=!4m2!3m1!1s0x2dd27a7f26d02f55:0x4ad0e821647ffbdc",
        "lat": -8.7812546,
        "lng": 115.51950180000001,
        "_id": 164,
        "google_place_id": "ChIJVS_QJn960i0R3Pt_ZCHo0Eo"
    },
    {
        "title": "Gala-Gala Underground House",
        "note": "",
        "url": "https://www.google.com/maps/place/Gala-Gala+Underground+House/data=!4m2!3m1!1s0x2dd26db9b12f850f:0x17ba99afb66e97dc",
        "lat": -8.691897599999999,
        "lng": 115.43971030000002,
        "_id": 165,
        "google_place_id": "ChIJD4Uvsblt0i0R3Jdutq-Zuhc"
    },
    {
        "title": "Kai Tod Fried Chicken",
        "note": "",
        "url": "https://www.google.com/maps/place/Kai+Tod+Fried+Chicken/data=!4m2!3m1!1s0x30da6d2121436a09:0x2ce78cfbc0031ec5",
        "lat": 34.0702723,
        "lng": -118.35184559999999,
        "_id": 166,
        "google_place_id": "ChIJJ2V3IDW5woARcqn1DJ9LyQ0"
    },
    {
        "title": "Kong Gnam View point",
        "note": "",
        "url": "https://www.google.com/maps/place/Kong+Gnam+View+point/data=!4m2!3m1!1s0x30da7088f08733e1:0x6d4c2545dc086a6c",
        "lat": 19.2236424,
        "lng": 98.67310049999999,
        "_id": 167,
        "google_place_id": "ChIJ4TOH8Ihw2jARbGoI3EUlTG0"
    },
    {
        "title": "Santichon Village",
        "note": "Chinese village. try fried shiitake mushrooms and steamed black chicken",
        "url": "https://www.google.com/maps/place/Santichon+Village/data=!4m2!3m1!1s0x30da81fe625cfae3:0x811eac3facc04080",
        "lat": 19.3707471,
        "lng": 98.4027162,
        "_id": 168,
        "google_place_id": "ChIJ4_pcYv6B2jARgEDArD-sHoE"
    },
    {
        "title": "Sunset Bar",
        "note": "",
        "url": "https://www.google.com/maps/place/Sunset+Bar/data=!4m2!3m1!1s0x30da8036f4eb5665:0x633a0456e10bfe13",
        "lat": 34.098243499999995,
        "lng": -118.3508002,
        "_id": 169,
        "google_place_id": "ChIJNzD1ud6-woARWu3kgTJVYC4"
    },
    {
        "title": "Noodle Soup House Ban Jabo",
        "note": "bomb spicy tom yum with your feet dangling off the side of the wooden building floor",
        "url": "https://www.google.com/maps/place/Noodle+Soup+House+Ban+Jabo/data=!4m2!3m1!1s0x30d06d75c51dc0d7:0x260acd144735f6e8",
        "lat": 19.5814797,
        "lng": 98.20594679999999,
        "_id": 170,
        "google_place_id": "ChIJ18AdxXVt0DAR6PY1RxTNCiY"
    },
    {
        "title": "Doi Kiew Lom Viewpoint",
        "note": "",
        "url": "https://www.google.com/maps/place/Doi+Kiew+Lom+Viewpoint/data=!4m2!3m1!1s0x30d079dcd96b097f:0x42f9e8019fd02540",
        "lat": 19.4457839,
        "lng": 98.3191576,
        "_id": 171,
        "google_place_id": "ChIJfwlr2dx50DARQCXQnwHo-UI"
    },
    {
        "title": "POP SERVICE @Car Rent (Somphet)",
        "note": "manual motorbikes",
        "url": "https://www.google.com/maps/place/POP+SERVICE+@Car+Rent+(Somphet)/data=!4m2!3m1!1s0x30da3aa326553b29:0xa906b2586aea8e8f",
        "lat": 18.7912687,
        "lng": 98.99377609999999,
        "_id": 172,
        "google_place_id": "ChIJKTtVJqM62jARj47qaliyBqk"
    },
    {
        "title": "Dekdoi Coffee Jabo",
        "note": "",
        "url": "https://www.google.com/maps/place/Dekdoi+Coffee+Jabo/data=!4m2!3m1!1s0x30d06df1bffc4c0d:0x6bf9a6d4c1d47896",
        "lat": 19.581632499999998,
        "lng": 98.2060132,
        "_id": 173,
        "google_place_id": "ChIJDUz8v_Ft0DARlnjUwdSm-Ws"
    },
    {
        "title": "Nam Lod Cave",
        "note": "",
        "url": "https://www.google.com/maps/place/Nam+Lod+Cave/data=!4m2!3m1!1s0x30d06fd91af19d1d:0x6a19224c76e57e7a",
        "lat": 19.5653815,
        "lng": 98.27918350000002,
        "_id": 174,
        "google_place_id": "ChIJHZ3xGtlv0DARen7ldkwiGWo"
    },
    {
        "title": "Wat Si Don Chai",
        "note": "",
        "url": "https://www.google.com/maps/place/Wat+Si+Don+Chai/data=!4m2!3m1!1s0x30d07f843ea9dfb5:0x1e7f74b49bbd9bd9",
        "lat": 18.7816558,
        "lng": 99.00047599999999,
        "_id": 175,
        "google_place_id": "ChIJbxh3lqc62jARO5p2K3d0JGs"
    },
    {
        "title": "Jaey Cafe",
        "note": "",
        "url": "https://www.google.com/maps/place/Jaey+Cafe/data=!4m2!3m1!1s0x30da83ef6e1f078b:0x36c539a05fd67793",
        "lat": 34.0917099,
        "lng": -118.1442393,
        "_id": 176,
        "google_place_id": "ChIJG7Xrnh3FwoARVPguLd4a8Bo"
    },
    {
        "title": "Pai Canyon",
        "note": "visit at sunset",
        "url": "https://www.google.com/maps/place/Pai+Canyon/data=!4m2!3m1!1s0x30da80e8f3eba0f9:0x83dbe124b195aec2",
        "lat": 19.3061309,
        "lng": 98.4525058,
        "_id": 177,
        "google_place_id": "ChIJ-aDr8-iA2jARwq6VsSTh24M"
    },
    {
        "title": "Mo Pang Waterfall",
        "note": "",
        "url": "https://www.google.com/maps/place/Mo+Pang+Waterfall/data=!4m2!3m1!1s0x30d07f54991c2747:0x233a0a2ca702efe8",
        "lat": 19.378833,
        "lng": 98.3757871,
        "_id": 178,
        "google_place_id": "ChIJRyccmVR_0DAR6O8CpywKOiM"
    },
    {
        "title": "Huay Pu Keng - Kayan Village",
        "note": "",
        "url": "https://www.google.com/maps/place/Huay+Pu+Keng+-+Kayan+Village/data=!4m2!3m1!1s0x30daae41e22db319:0xe3e261ca382b65e6",
        "lat": 19.236645799999998,
        "lng": 97.8940878,
        "_id": 179,
        "google_place_id": "ChIJGbMt4kGu2jAR5mUrOMph4uM"
    },
    {
        "title": "Wat Phra That Doi Kongmu",
        "note": "sunrise / sunset",
        "url": "https://www.google.com/maps/place/Wat+Phra+That+Doi+Kongmu/data=!4m2!3m1!1s0x30daa5f1aaaaaaab:0xca043cd74f1bf1d0",
        "lat": 19.3000638,
        "lng": 97.9605217,
        "_id": 180,
        "google_place_id": "ChIJq6qqqvGl2jAR0PEbT9c8BMo"
    },
    {
        "title": "Coffee Morning",
        "note": "",
        "url": "https://www.google.com/maps/place/Coffee+Morning/data=!4m2!3m1!1s0x30daa5f055d50833:0x76535177ea373760",
        "lat": 34.1078549,
        "lng": -118.25130290000001,
        "_id": 181,
        "google_place_id": "ChIJ1a0vOcTBwoARBjEAJDyAQE0"
    },
    {
        "title": "Su Tong Pae Bridge",
        "note": "",
        "url": "https://www.google.com/maps/place/Su+Tong+Pae+Bridge/data=!4m2!3m1!1s0x30daa9b0215a385d:0x9e24de82e71da9d7",
        "lat": 19.3889869,
        "lng": 97.95416159999999,
        "_id": 182,
        "google_place_id": "ChIJXThaIbCp2jAR16kd54LeJJ4"
    },
    {
        "title": "Morning Market (Talat Chao)",
        "note": "",
        "url": "https://www.google.com/maps/place/Morning+Market+(Talat+Chao)/data=!4m2!3m1!1s0x30daa606e43ce3df:0xd594089647069f5b",
        "lat": 19.3029405,
        "lng": 97.9667297,
        "_id": 183,
        "google_place_id": "ChIJ3-M85Aam2jARW58GR5YIlNU"
    },
    {
        "title": "Empty Hut Memorial",
        "note": "",
        "url": "https://www.google.com/maps/place/Empty+Hut+Memorial/data=!4m2!3m1!1s0x30d01b1fdceaa5c7:0x3b221204baf6ce4c",
        "lat": 19.5937703,
        "lng": 97.9396129,
        "_id": 184,
        "google_place_id": "ChIJx6Xq3B8b0DARTM72ugQSIjs"
    },
    {
        "title": "Mae La Luang Viewpoint",
        "note": "",
        "url": "https://www.google.com/maps/place/Mae+La+Luang+Viewpoint/data=!4m2!3m1!1s0x30db2f4a1aaea4c5:0x50cd0b74b655c6e2",
        "lat": 18.5404011,
        "lng": 97.93819940000002,
        "_id": 185,
        "google_place_id": "ChIJxaSuGkov2zAR4sZVtnQLzVA"
    },
    {
        "title": "Coffee Box@Pai",
        "note": "",
        "url": "https://www.google.com/maps/place/Coffee+Box@Pai/data=!4m2!3m1!1s0x30da8176eec7beab:0xc28088dd985b1f86",
        "lat": 19.3683314,
        "lng": 98.43524479999999,
        "_id": 186,
        "google_place_id": "ChIJq77H7naB2jARhh9bmN2IgMI"
    },
    {
        "title": "Sai Ngam hot spring",
        "note": "",
        "url": "https://www.google.com/maps/place/Sai+Ngam+hot+spring/data=!4m2!3m1!1s0x30d079420ee683a1:0x17418418abf74753",
        "lat": 19.4590854,
        "lng": 98.3799452,
        "_id": 187,
        "google_place_id": "ChIJoYPmDkJ50DARU0f3qxiEQRc"
    },
    {
        "title": "Love Strawberry Pai",
        "note": "",
        "url": "https://www.google.com/maps/place/Love+Strawberry+Pai/data=!4m2!3m1!1s0x30da80efbd53609f:0xaaf78a7206f7245e",
        "lat": 19.311080699999998,
        "lng": 98.45316609999999,
        "_id": 188,
        "google_place_id": "ChIJn2BTve-A2jARXiT3BnKK96o"
    },
    {
        "title": "Wat Jong Soong",
        "note": "",
        "url": "https://www.google.com/maps/place/Wat+Jong+Soong/data=!4m2!3m1!1s0x30db4f40f223c32f:0x708d6569eb32bf1c",
        "lat": 18.1605311,
        "lng": 97.9304757,
        "_id": 189,
        "google_place_id": "ChIJL8Mj8kBP2zARHL8y62lljXA"
    },
    {
        "title": "Morning Market",
        "note": "",
        "url": "https://www.google.com/maps/place/Morning+Market/data=!4m2!3m1!1s0x30db4f304277e2b5:0x8fd2184e71478c91",
        "lat": 34.041197,
        "lng": -118.24992459999999,
        "_id": 190,
        "google_place_id": "ChIJOwJr81vHwoARN-9RSxi9RWA"
    },
    {
        "title": "Wat Chom Thong",
        "note": "",
        "url": "https://www.google.com/maps/place/Wat+Chom+Thong/data=!4m2!3m1!1s0x30db4f4391dca8e1:0x34bb4688d87413eb",
        "lat": 18.4208446,
        "lng": 98.67913279999999,
        "_id": 191,
        "google_place_id": "ChIJ5QdUTwqw2zARvPNGRtN4zn8"
    },
    {
        "title": "Wat Phrathat Chom Mon",
        "note": "",
        "url": "https://www.google.com/maps/place/Wat+Phrathat+Chom+Mon/data=!4m2!3m1!1s0x30db48d937678a79:0xf3b850efdd9c7f31",
        "lat": 18.185833199999998,
        "lng": 97.9197576,
        "_id": 192,
        "google_place_id": "ChIJeYpnN9lI2zARMX-c3e9QuPM"
    },
    {
        "title": "Pa Chang cliff, Ob Luang National Park",
        "note": "inexpensive good restaurant at park entrance",
        "url": "https://www.google.com/maps/place/Pa+Chang+cliff,+Ob+Luang+National+Park/data=!4m2!3m1!1s0x30db9fe2bf2ec325:0x1d1994c1de8d3a09",
        "lat": 18.226486899999998,
        "lng": 98.4847223,
        "_id": 193,
        "google_place_id": "ChIJJcMuv-Kf2zARCTqN3sGUGR0"
    },
    {
        "title": "Huai Nam Dang National Park",
        "note": "cherry blossoms at Khun Mae Ya",
        "url": "https://www.google.com/maps/place/Huai+Nam+Dang+National+Park/data=!4m2!3m1!1s0x30da7964f692a723:0x1d0100b2deabb0e0",
        "lat": 19.303936,
        "lng": 98.59886929999999,
        "_id": 194,
        "google_place_id": "ChIJI6eS9mR52jAR4LCr3rIAAR0"
    },
    {
        "title": "Maesawannoi Waterfall, Mae Sariang Town",
        "note": "hike to waterfall in jungle",
        "url": "https://www.google.com/maps/place/Maesawannoi+Waterfall,+Mae+Sariang+Town/data=!4m2!3m1!1s0x30db40cd9586fa4d:0x863ea109d1fbb20d",
        "lat": 18.180064700000003,
        "lng": 98.07175529999999,
        "_id": 195,
        "google_place_id": "ChIJTfqGlc1A2zARDbL70QmhPoY"
    },
    {
        "title": "Huai Kung Viewpoint",
        "note": "stop for coffee ",
        "url": "https://www.google.com/maps/place/Huai+Kung+Viewpoint/data=!4m2!3m1!1s0x30db698d87c72e7b:0x87294a4947d504a6",
        "lat": 18.1476831,
        "lng": 98.1590445,
        "_id": 196,
        "google_place_id": "ChIJey7Hh41p2zARpgTVR0lKKYc"
    },
    {
        "title": "Bo Kaeo Pine Tree Garden",
        "note": "",
        "url": "https://www.google.com/maps/place/Bo+Kaeo+Pine+Tree+Garden/data=!4m2!3m1!1s0x30db73fb962c4e77:0xf5669e28ac50b8ce",
        "lat": 18.1562962,
        "lng": 98.38849809999999,
        "_id": 197,
        "google_place_id": "ChIJd04slvtz2zARzrhQrCieZvU"
    },
    {
        "title": "Pang Mapha Viewpoint",
        "note": "",
        "url": "https://www.google.com/maps/place/Pang+Mapha+Viewpoint/data=!4m2!3m1!1s0x30d072697b64dcc7:0x7d2c1cd90556bdb",
        "lat": 19.5582007,
        "lng": 98.1523091,
        "_id": 198,
        "google_place_id": "ChIJx9xke2ly0DAR22tVkM3B0gc"
    },
    {
        "title": "Ing Doi Guesthouse",
        "note": "",
        "url": "https://www.google.com/maps/place/Ing+Doi+Guesthouse/data=!4m2!3m1!1s0x30da8030df9145e3:0x5c130449edcb0bcf",
        "lat": 19.3560159,
        "lng": 98.44864869999999,
        "_id": 199,
        "google_place_id": "ChIJ40WR3zCA2jARzwvL7UkEE1w"
    },
    {
        "title": "Crossroads House",
        "note": "",
        "url": "https://www.google.com/maps/place/Crossroads+House/data=!4m2!3m1!1s0x30daaf586f6dc409:0xdba9d2ea495e92a7",
        "lat": 33.9639261,
        "lng": -118.18837239999999,
        "_id": 200,
        "google_place_id": "ChIJT2WgAKTOwoAR8f_vs0klne4"
    },
    {
        "title": "Mae Sariang Home",
        "note": "",
        "url": "https://www.google.com/maps/place/Mae+Sariang+Home/data=!4m2!3m1!1s0x30db499840820af7:0xcf57dac0b571a3c5",
        "lat": 18.163089199999998,
        "lng": 97.9321822,
        "_id": 201,
        "google_place_id": "ChIJ9wqCQJhJ2zARxaNxtcDaV88"
    },
    {
        "title": "Khuang Na Farmview",
        "note": "",
        "url": "https://www.google.com/maps/place/Khuang+Na+Farmview/data=!4m2!3m1!1s0x30db044381619673:0xab80ff5a7469395c",
        "lat": 18.4978949,
        "lng": 98.36653679999999,
        "_id": 202,
        "google_place_id": "ChIJc5ZhgUME2zARXDlpdFr_gKs"
    },
    {
        "title": "Ang Ka Nature Trail",
        "note": "",
        "url": "https://www.google.com/maps/place/Ang+Ka+Nature+Trail/data=!4m2!3m1!1s0x30dbaa9efc685acf:0x75234e06d04429f4",
        "lat": 18.588454199999997,
        "lng": 98.486105,
        "_id": 203,
        "google_place_id": "ChIJHXoXXHIA2zARfsawBGeiXPg"
    },
    {
        "title": "Kew Mae Pan nature trail",
        "note": "",
        "url": "https://www.google.com/maps/place/Kew+Mae+Pan+nature+trail/data=!4m2!3m1!1s0x30db0082cda59599:0x63f1dbb6ea3be195",
        "lat": 18.5558697,
        "lng": 98.4822195,
        "_id": 204,
        "google_place_id": "ChIJmZWlzYIA2zARleE76rbb8WM"
    },
    {
        "title": "Chiang Mai Erotic Garden",
        "note": "",
        "url": "https://www.google.com/maps/place/Chiang+Mai+Erotic+Garden/data=!4m2!3m1!1s0x30da15f99c3ccb65:0x757af8610079fc0f",
        "lat": 18.97812,
        "lng": 98.916107,
        "_id": 205,
        "google_place_id": "ChIJZcs8nPkV2jARD_x5AGH4enU"
    },
    {
        "title": "Mok Fa Waterfall",
        "note": "",
        "url": "https://www.google.com/maps/place/Mok+Fa+Waterfall/data=!4m2!3m1!1s0x30da6c49270764f9:0xae5d5ee57568226",
        "lat": 19.1123077,
        "lng": 98.7747929,
        "_id": 206,
        "google_place_id": "ChIJ-WQHJ0ls2jARJoJWV-7V5Qo"
    },
    {
        "title": "Tha Pai Memorial Bridge",
        "note": "",
        "url": "https://www.google.com/maps/place/Tha+Pai+Memorial+Bridge/data=!4m2!3m1!1s0x30da80bfbc14715b:0x10a0f9ca0982a59a",
        "lat": 19.297427199999998,
        "lng": 98.46505239999999,
        "_id": 207,
        "google_place_id": "ChIJW3EUvL-A2jARmqWCCcr5oBA"
    },
    {
        "title": "Coffee in Love",
        "note": "best views between Pai and Chiang Mai",
        "url": "https://www.google.com/maps/place/Coffee+in+Love/data=!4m2!3m1!1s0x30da81b1c493a675:0xee267b4ff818c23f",
        "lat": 34.036549,
        "lng": -118.25745010000001,
        "_id": 208,
        "google_place_id": "ChIJj8rT0UrHwoAR4IMT6k6R1ow"
    },
    {
        "title": "Kho Ku So Bamboo Bridge",
        "note": "",
        "url": "https://www.google.com/maps/place/Kho+Ku+So+Bamboo+Bridge/data=!4m2!3m1!1s0x30da83d5c874a0f1:0x9ca555b654c52d7c",
        "lat": 19.322507899999998,
        "lng": 98.39316579999999,
        "_id": 209,
        "google_place_id": "ChIJ8aB0yNWD2jARfC3FVLZVpZw"
    },
    {
        "title": "Yun Lai Viewpoint",
        "note": "",
        "url": "https://www.google.com/maps/place/Yun+Lai+Viewpoint/data=!4m2!3m1!1s0x30da8201f4379731:0xea280ac5d8994cea",
        "lat": 19.369037199999998,
        "lng": 98.395388,
        "_id": 210,
        "google_place_id": "ChIJMZc39AGC2jAR6kyZ2MUKKOo"
    },
    {
        "title": "Big Buddha Pai",
        "note": "",
        "url": "https://www.google.com/maps/place/Big+Buddha+Pai/data=!4m2!3m1!1s0x30da8038c8b734fd:0xdbc27eb04000857e",
        "lat": 19.3500969,
        "lng": 98.4561919,
        "_id": 211,
        "google_place_id": "ChIJ_TS3yDiA2jARfoUAQLB-wts"
    },
    {
        "title": "Doi Kiew Lom View Point",
        "note": "",
        "url": "https://www.google.com/maps/place/Doi+Kiew+Lom+View+Point/data=!4m2!3m1!1s0x30da791cc4d03e53:0xd9fca1cf034441db",
        "lat": 19.313817699999998,
        "lng": 98.6041721,
        "_id": 212,
        "google_place_id": "ChIJUz7QxBx52jAR20FEA8-h_Nk"
    },
    {
        "title": "Mae La Na Cave",
        "note": "",
        "url": "https://www.google.com/maps/place/Mae+La+Na+Cave/data=!4m2!3m1!1s0x30d06dff2ad981f9:0xc78e58985b953246",
        "lat": 19.574644,
        "lng": 98.21588299999999,
        "_id": 213,
        "google_place_id": "ChIJ-YHZKv9t0DARRjKVW5hYjsc"
    },
    {
        "title": "View Point",
        "note": "",
        "url": "https://www.google.com/maps/place/View+Point/data=!4m2!3m1!1s0x30d06d1c61bc9c97:0x9b4a7a6de11f6da0",
        "lat": 34.228736999999995,
        "lng": -118.182953,
        "_id": 214,
        "google_place_id": "ChIJwzhreZXpwoARdlYr_7FKeCA"
    },
    {
        "title": "Tham Pla - Namtok Pha Suea National Park Office",
        "note": "visit fish cave",
        "url": "https://www.google.com/maps/place/Tham+Pla+-+Namtok+Pha+Suea+National+Park+Office/data=!4m2!3m1!1s0x30d00ed91a92c337:0x740197075623bc29",
        "lat": 19.425603199999998,
        "lng": 97.9871311,
        "_id": 215,
        "google_place_id": "ChIJN8OSGtkO0DARKbwjVgeXAXQ"
    },
    {
        "title": "Namtok Pha Suea - Pha Sua Waterfall",
        "note": "",
        "url": "https://www.google.com/maps/place/Namtok+Pha+Suea+-+Pha+Sua+Waterfall/data=!4m2!3m1!1s0x30d005ffbded599b:0xf4d9cd506ab4be95",
        "lat": 19.490837,
        "lng": 97.9578805,
        "_id": 216,
        "google_place_id": "ChIJm1ntvf8F0DARlb60alDN2fQ"
    },
    {
        "title": "Nong Chong Kham",
        "note": "view at night",
        "url": "https://www.google.com/maps/place/Nong+Chong+Kham/data=!4m2!3m1!1s0x30daa549eb56a017:0x832f1a568d451c76",
        "lat": 19.299261299999998,
        "lng": 97.9678921,
        "_id": 217,
        "google_place_id": "ChIJF6BW60ml2jARdhxFjVYaL4M"
    },
    {
        "title": "MHS Provincial Chamber of Commerce",
        "note": "Mae Hong Son Loop certificate, try local aromatic coffee",
        "url": "https://www.google.com/maps/place/MHS+Provincial+Chamber+of+Commerce/data=!4m2!3m1!1s0x30daa5fc99e1cb0f:0x7e005cc5bfafbd32",
        "lat": 19.292045200000004,
        "lng": 97.9645072,
        "_id": 218,
        "google_place_id": "ChIJD8vhmfyl2jARMr2vv8VcAH4"
    },
    {
        "title": "Pha Bong Hot Spring",
        "note": "",
        "url": "https://www.google.com/maps/place/Pha+Bong+Hot+Spring/data=!4m2!3m1!1s0x30daa5498d9eefc7:0xe78b887306149ef9",
        "lat": 19.2109499,
        "lng": 97.978916,
        "_id": 219,
        "google_place_id": "ChIJx--ejUml2jAR-Z4UBnOIi-c"
    },
    {
        "title": "Pha Bong Viewpoint",
        "note": "",
        "url": "https://www.google.com/maps/place/Pha+Bong+Viewpoint/data=!4m2!3m1!1s0x30dabaef06b80f67:0xc2fdd0abec0d62e7",
        "lat": 19.171480499999998,
        "lng": 97.9896302,
        "_id": 220,
        "google_place_id": "ChIJZw-4Bu-62jAR52IN7KvQ_cI"
    },
    {
        "title": "Namtok Mae Surin National Park",
        "note": "",
        "url": "https://www.google.com/maps/place/Namtok+Mae+Surin+National+Park/data=!4m2!3m1!1s0x30dabbfd58d3ffc1:0x45eae96c2752e10",
        "lat": 18.942547299999998,
        "lng": 98.0712134,
        "_id": 221,
        "google_place_id": "ChIJwf_TWP272jAREC51wpauXgQ"
    },
    {
        "title": "Thai-Japan Friendship Memorial Hall Khumyuam",
        "note": "",
        "url": "https://www.google.com/maps/place/Thai-Japan+Friendship+Memorial+Hall+Khumyuam/data=!4m2!3m1!1s0x30dacfdfb4879263:0x44515b27d4cf8986",
        "lat": 18.8302747,
        "lng": 97.93317449999999,
        "_id": 222,
        "google_place_id": "ChIJY5KHtN_P2jARhonP1CdbUUQ"
    },
    {
        "title": "Mae Ya Water Fall",
        "note": "",
        "url": "https://www.google.com/maps/place/Mae+Ya+Water+Fall/data=!4m2!3m1!1s0x30dbaf43bd171d47:0xcc0c05d6c71c2389",
        "lat": 18.4396776,
        "lng": 98.5979932,
        "_id": 223,
        "google_place_id": "ChIJRx0XvUOv2zARiSMcx9YFDMw"
    },
    {
        "title": "Wachirathan Waterfall",
        "note": "",
        "url": "https://www.google.com/maps/place/Wachirathan+Waterfall/data=!4m2!3m1!1s0x30dbac389d463eeb:0x83e852fcbecf7e37",
        "lat": 18.542002699999998,
        "lng": 98.5982538,
        "_id": 224,
        "google_place_id": "ChIJ6z5GnTis2zARN37PvvxS6IM"
    },
    {
        "title": "Grand Pagoda Nabhapolbhumisiri",
        "note": "",
        "url": "https://www.google.com/maps/place/Grand+Pagoda+Nabhapolbhumisiri/data=!4m2!3m1!1s0x30db009c6c5dc2a1:0x24a24a98ffde2ba3",
        "lat": 18.5533969,
        "lng": 98.47941759999999,
        "_id": 225,
        "google_place_id": "ChIJocJdbJwA2zARoyve_5hKoiQ"
    },
    {
        "title": "Ban Rak Thai",
        "note": "",
        "url": "https://www.google.com/maps/place/Ban+Rak+Thai/data=!4m2!3m1!1s0x30d0042cf8f1b971:0xfe9f1eacc4d30d6f",
        "lat": 19.5869727,
        "lng": 97.94257859999999,
        "_id": 226,
        "google_place_id": "ChIJcbnx-CwE0DARbw3TxKwen_4"
    },
    {
        "title": "Thung Bua Tong Fields at Doi Mae U Kho",
        "note": "",
        "url": "https://www.google.com/maps/place/Thung+Bua+Tong+Fields+at+Doi+Mae+U+Kho/data=!4m2!3m1!1s0x30dac3cab069d6e9:0xe23b11800815a541",
        "lat": 18.8947033,
        "lng": 98.09109439999999,
        "_id": 227,
        "google_place_id": "ChIJ6dZpsMrD2jARQaUVCIARO-I"
    },
    {
        "title": "Lan View Coffee",
        "note": "",
        "url": "https://www.google.com/maps/place/Lan+View+Coffee/data=!4m2!3m1!1s0x30dad7e6d5de45fb:0x8cf94fb4c92ebdd1",
        "lat": 34.0619356,
        "lng": -118.3108356,
        "_id": 228,
        "google_place_id": "ChIJm0HcqJq4woARejpk1V0UqYM"
    },
    {
        "title": "Doi Inthanon National Park",
        "note": "",
        "url": "https://www.google.com/maps/place/Doi+Inthanon+National+Park/data=!4m2!3m1!1s0x30dbab95555461ff:0x54e343c4fa33975b",
        "lat": 18.5880431,
        "lng": 98.4870612,
        "_id": 229,
        "google_place_id": "ChIJa9l_HJyq2zARVHBsqbMf8PM"
    },
    {
        "title": "142 Sullivan Bar",
        "note": "",
        "url": "https://www.google.com/maps/place/142+Sullivan+Bar/data=!4m2!3m1!1s0x89c2598d94e16e2b:0xf6e0c9a8e03d064b",
        "lat": 40.7271061,
        "lng": -74.002213,
        "_id": 230,
        "google_place_id": "ChIJK27hlI1ZwokRSwY94KjJ4PY"
    },
    {
        "title": "JIMMY",
        "note": "",
        "url": "https://www.google.com/maps/place/JIMMY/data=!4m2!3m1!1s0x89c2598b6c14b231:0x5b24baebc67681fb",
        "lat": 34.0528426,
        "lng": -118.25695060000001,
        "_id": 231,
        "google_place_id": "ChIJ10b0FLLHwoARS8_u5Y-CCRY"
    },
    {
        "title": "Copper & Oak",
        "note": "",
        "url": "https://www.google.com/maps/place/Copper+%26+Oak/data=!4m2!3m1!1s0x89c25986a5ab00fb:0x1d7bf533a794e3cb",
        "lat": 34.076398,
        "lng": -118.30656529999999,
        "_id": 232,
        "google_place_id": "ChIJ79_9wKO4woARvHUdo6IvG1w"
    },
    {
        "title": "Brandy Library",
        "note": "",
        "url": "https://www.google.com/maps/place/Brandy+Library/data=!4m2!3m1!1s0x89c259f54436ba93:0xa914652ad4cf7c62",
        "lat": 40.7199482,
        "lng": -74.00710579999999,
        "_id": 233,
        "google_place_id": "ChIJk7o2RPVZwokRYnzP1CplFKk"
    },
    {
        "title": "SoHo Cigar Bar",
        "note": "",
        "url": "https://www.google.com/maps/place/SoHo+Cigar+Bar/data=!4m2!3m1!1s0x89c2598c9d509149:0x684942c754f2f",
        "lat": 40.7236469,
        "lng": -74.0043524,
        "_id": 234,
        "google_place_id": "ChIJSZFQnYxZwokRL091LJSEBgA"
    },
    {
        "title": "Bowery Meat Company",
        "note": "",
        "url": "https://www.google.com/maps/place/Bowery+Meat+Company/data=!4m2!3m1!1s0x89c25984fdc9c79f:0xe89d102ef3812462",
        "lat": 40.7245665,
        "lng": -73.9918409,
        "_id": 235,
        "google_place_id": "ChIJn8fJ_YRZwokRYiSB8y4Qneg"
    },
    {
        "title": "The Carnegie Club",
        "note": "",
        "url": "https://www.google.com/maps/place/The+Carnegie+Club/data=!4m2!3m1!1s0x89c258f9d82e547f:0x3d81afb5e2db7fa8",
        "lat": 40.7643351,
        "lng": -73.979813,
        "_id": 236,
        "google_place_id": "ChIJf1Qu2PlYwokRqH_b4rWvgT0"
    },
    {
        "title": "Whiskey Trader",
        "note": "",
        "url": "https://www.google.com/maps/place/Whiskey+Trader/data=!4m2!3m1!1s0x89c258f98b6c0cd5:0xa87776091ad4d7d9",
        "lat": 40.7629501,
        "lng": -73.9774876,
        "_id": 237,
        "google_place_id": "ChIJ1Qxsi_lYwokR2dfUGgl2d6g"
    },
    {
        "title": "Tanner Smith's",
        "note": "",
        "url": "https://www.google.com/maps/place/Tanner+Smith's/data=!4m2!3m1!1s0x89c258f8191c8b63:0xbc9aba234a420d",
        "lat": 40.7643361,
        "lng": -73.9815917,
        "_id": 238,
        "google_place_id": "ChIJY4scGfhYwokRDUJKI7qavAA"
    },
    {
        "title": "Sunda Kelapa",
        "note": "pier with old boats ",
        "url": "https://www.google.com/maps/place/Sunda+Kelapa/data=!4m2!3m1!1s0x2e6a1de45e4ec0a1:0x74808ea94ec1eac4",
        "lat": -6.1220575,
        "lng": 106.8085808,
        "_id": 239,
        "google_place_id": "ChIJuUkdIvsdai4RPTpSz_SF2pw"
    },
    {
        "title": "Namelaka - Menteng",
        "note": "desserts",
        "url": "https://www.google.com/maps/place/Namelaka+-+Menteng/data=!4m2!3m1!1s0x2e69f40a8d548dc3:0x5de7425df339b136",
        "lat": -6.197633199999999,
        "lng": 106.83652819999999,
        "_id": 240,
        "google_place_id": "ChIJw41UjQr0aS4RNrE5811C510"
    },
    {
        "title": "BART Jakarta",
        "note": "",
        "url": "https://www.google.com/maps/place/BART+Jakarta/data=!4m2!3m1!1s0x2e69f425ccf42741:0x6c6321ea8a60e155",
        "lat": -6.188492,
        "lng": 106.824793,
        "_id": 241,
        "google_place_id": "ChIJQSf0zCX0aS4RVeFgiuohY2w"
    },
    {
        "title": "Jln Jaksa",
        "note": "nighttime / drinking",
        "url": "https://www.google.com/maps/place/Jln+Jaksa/data=!4m2!3m1!1s0x2e69f42fde815105:0x67b73df24bc8e66e",
        "lat": -6.1851512,
        "lng": 106.8292442,
        "_id": 242,
        "google_place_id": "ChIJBVGB3i_0aS4RbubIS_I9t2c"
    },
    {
        "title": "Grand Indonesia",
        "note": "",
        "url": "https://www.google.com/maps/place/Grand+Indonesia/data=!4m2!3m1!1s0x2e69f421c2ebd463:0xccfcc89b95aaf1ae",
        "lat": 34.0331413,
        "lng": -117.3155792,
        "_id": 243,
        "google_place_id": "ChIJAbcQTzOt3IARWfQEzRQGoaQ"
    },
    {
        "title": "Fatahillah Square",
        "note": "people-watching, calm",
        "url": "https://www.google.com/maps/place/Fatahillah+Square/data=!4m2!3m1!1s0x2e6a1dff3f8f5fed:0xf2536e698fceab32",
        "lat": -6.134669,
        "lng": 106.8132041,
        "_id": 244,
        "google_place_id": "ChIJ7V-PP_8dai4RMqvOj2luU_I"
    },
    {
        "title": "Alley of Pasar Baru (People market of Pasar Baru)",
        "note": "Little India / market / street food",
        "url": "https://www.google.com/maps/place/Alley+of+Pasar+Baru+(People+market+of+Pasar+Baru)/data=!4m2!3m1!1s0x2e69f588c51c2137:0x42580ddc45acf1c9",
        "lat": -6.1642902,
        "lng": 106.83399759999999,
        "_id": 245,
        "google_place_id": "ChIJNyEcxYj1aS4RyfGsRdwNWEI"
    },
    {
        "title": "Wayang Museum",
        "note": "puppet museum",
        "url": "https://www.google.com/maps/place/Wayang+Museum/data=!4m2!3m1!1s0x2e6a1dff48f259ff:0xfeb6bfd7e15db853",
        "lat": -6.1349072,
        "lng": 106.8124452,
        "_id": 246,
        "google_place_id": "ChIJ_1nySP8dai4RU7hd4de_tv4"
    },
    {
        "title": "Flea Market",
        "note": "Jalan Surabaya Flea Market",
        "url": "https://www.google.com/maps/place/Flea+Market/data=!4m2!3m1!1s0x2e69f4150ee4b8b5:0x72b7c459e76f470a",
        "lat": 34.0784452,
        "lng": -118.26200410000001,
        "_id": 247,
        "google_place_id": "ChIJS6l8mc24woARh_Ajfzeol5M"
    },
    {
        "title": "Jl. Cikini Raya",
        "note": "street food",
        "url": "https://www.google.com/maps/place/Jl.+Cikini+Raya/data=!4m2!3m1!1s0x2e69f43fa6c96e93:0xb7e51f38ccfa8b61",
        "lat": -6.1918451,
        "lng": 106.8385313,
        "_id": 248,
        "google_place_id": "ChIJk27Jpj_0aS4RYYv6zDgf5bc"
    },
    {
        "title": "Sabang wh",
        "note": "Jl. H Agus Salim - street food area",
        "url": "https://www.google.com/maps/place/Sabang+wh/data=!4m2!3m1!1s0x2e69f53442d6c807:0x49862c58e46fce3d",
        "lat": 5.8915007,
        "lng": 95.32250080000001,
        "_id": 249,
        "google_place_id": "ChIJ4cbSWxLGQTAR1U2MQHwQWKA"
    },
    {
        "title": "Kopi Es Tak Kie",
        "note": "old Chinese coffee shop famous for its coffee and a dish named Nasi campur",
        "url": "https://www.google.com/maps/place/Kopi+Es+Tak+Kie/data=!4m2!3m1!1s0x2e69f606b234cd91:0x68389930566cbb81",
        "lat": -6.1411799,
        "lng": 106.8137921,
        "_id": 250,
        "google_place_id": "ChIJkc00sgb2aS4RgbtsVjCZOGg"
    },
    {
        "title": "Pantjoran Tea House",
        "note": "Old Chinese tea house",
        "url": "https://www.google.com/maps/place/Pantjoran+Tea+House/data=!4m2!3m1!1s0x2e69f60699ba04a7:0xb7f2d64c6f50a7a9",
        "lat": -6.1423024999999996,
        "lng": 106.81463409999999,
        "_id": 251,
        "google_place_id": "ChIJpwS6mQb2aS4RqadQb0zW8rc"
    },
    {
        "title": "Glodok",
        "note": "Old Batavia / Chinatown",
        "url": "https://www.google.com/maps/place/Glodok/data=!4m2!3m1!1s0x2e69f60641dc0939:0xea69a046aa635dd5",
        "lat": -6.1448811999999995,
        "lng": 106.813413,
        "_id": 252,
        "google_place_id": "ChIJOQncQQb2aS4R1V1jqkagaeo"
    },
    {
        "title": "Kota Tua",
        "note": "",
        "url": "https://www.google.com/maps/place/Kota+Tua/data=!4m2!3m1!1s0x2e69f607534bb7c7:0x42eab7e4f2537065",
        "lat": -6.1350687,
        "lng": 106.81367949999999,
        "_id": 253,
        "google_place_id": "ChIJ7RcAlCrsaS4RM4GToNQSzt8"
    },
    {
        "title": "Mall Taman Anggrek",
        "note": "largest mall in Indonesia",
        "url": "https://www.google.com/maps/place/Mall+Taman+Anggrek/data=!4m2!3m1!1s0x2e69f6f50de17c9b:0xb287bf108f4ef441",
        "lat": -6.1786943,
        "lng": 106.7927014,
        "_id": 254,
        "google_place_id": "ChIJm3zhDfX2aS4RQfROjxC_h7I"
    },
    {
        "title": "Jakarta Cathedral",
        "note": "",
        "url": "https://www.google.com/maps/place/Jakarta+Cathedral/data=!4m2!3m1!1s0x2e69f5cef86e21ad:0x3ecfda74692fc79",
        "lat": -6.169328999999999,
        "lng": 106.832678,
        "_id": 255,
        "google_place_id": "ChIJrSFu-M71aS4RefySRqf97AM"
    },
    {
        "title": "Istiqlal Mosque",
        "note": "",
        "url": "https://www.google.com/maps/place/Istiqlal+Mosque/data=!4m2!3m1!1s0x2e69f5ce6cc278b3:0x92a90690b871304d",
        "lat": -6.17017,
        "lng": 106.83139,
        "_id": 256,
        "google_place_id": "ChIJHeC1aM71aS4RbAyE1ULw-so"
    },
    {
        "title": "Merdeka Palace",
        "note": "",
        "url": "https://www.google.com/maps/place/Merdeka+Palace/data=!4m2!3m1!1s0x2e69f51beef3a83d:0xf33dc651dadbb47d",
        "lat": 1.5561981999999999,
        "lng": 110.3437184,
        "_id": 257,
        "google_place_id": "ChIJo-FCpg-n-zERy9Xv9c5wVKo"
    },
    {
        "title": "National Monument",
        "note": "",
        "url": "https://www.google.com/maps/place/National+Monument/data=!4m2!3m1!1s0x2e69f5d2e764b12d:0x3d2ad6e1e0e9bcc8",
        "lat": 34.0565245,
        "lng": -118.2387684,
        "_id": 258,
        "google_place_id": "ChIJgQpEAUXGwoARoG9LzK0GhV0"
    },
    {
        "title": "Lao Omelet Mr. Lair",
        "note": "",
        "url": "https://www.google.com/maps/place/Lao+Omelet+Mr.+Lair/data=!4m2!3m1!1s0x312f2a69a2d2b25f:0x407d0e04470bb2e4",
        "lat": 19.8914932,
        "lng": 102.1330823,
        "_id": 259,
        "google_place_id": "ChIJX7LSomkqLzER5LILRwQOfUA"
    },
    {
        "title": "Crazy Golf Luang Prabang",
        "note": "",
        "url": "https://www.google.com/maps/place/Crazy+Golf+Luang+Prabang/data=!4m2!3m1!1s0x312f2b31fc523411:0xecdc5cabadff514a",
        "lat": 19.882985299999998,
        "lng": 102.14309109999999,
        "_id": 260,
        "google_place_id": "ChIJETRS_DErLzERSlH_ratc3Ow"
    },
    {
        "title": "Lao Red Cross Massage and Sauna Center",
        "note": "",
        "url": "https://www.google.com/maps/place/Lao+Red+Cross+Massage+and+Sauna+Center/data=!4m2!3m1!1s0x312f2a4069c02533:0xa50307ede289b2eb",
        "lat": 19.8865596,
        "lng": 102.1387608,
        "_id": 261,
        "google_place_id": "ChIJMyXAaUAqLzER67KJ4u0HA6U"
    },
    {
        "title": "UXO Lao Visitor Center",
        "note": "Secret War museum",
        "url": "https://www.google.com/maps/place/UXO+Lao+Visitor+Center/data=!4m2!3m1!1s0x312f2a46ea77a1c9:0x9c8e7f8a179ef377",
        "lat": 19.8819005,
        "lng": 102.1364152,
        "_id": 262,
        "google_place_id": "ChIJyaF36kYqLzERd_OeF4p_jpw"
    },
    {
        "title": "Khopfa Mekong Cruise",
        "note": "",
        "url": "https://www.google.com/maps/place/Khopfa+Mekong+Cruise/data=!4m2!3m1!1s0x312f2bdbf0a83047:0x29b19ca6c8c3aca",
        "lat": 19.8967253,
        "lng": 102.14003509999999,
        "_id": 263,
        "google_place_id": "ChIJRzCo8NsrLzERyjqMbMoZmwI"
    },
    {
        "title": "ST Bank",
        "note": "money exchange",
        "url": "https://www.google.com/maps/place/ST+Bank/data=!4m2!3m1!1s0x312f2a6a52c2d379:0xa3232305c6d78a3b",
        "lat": 34.0466312,
        "lng": -118.26192199999998,
        "_id": 264,
        "google_place_id": "ChIJf8kTR7HHwoARba3ImGh3nrY"
    },
    {
        "title": "National Museum",
        "note": "old kings car collection",
        "url": "https://www.google.com/maps/place/National+Museum/data=!4m2!3m1!1s0x312f2a6a328c6c99:0x336269f4807f9366",
        "lat": 34.0496239,
        "lng": -118.2385887,
        "_id": 265,
        "google_place_id": "ChIJpQpNmkfGwoARPgqyi4UHWkM"
    },
    {
        "title": "Wat Sensoukharam",
        "note": "Alms giving",
        "url": "https://www.google.com/maps/place/Wat+Sensoukharam/data=!4m2!3m1!1s0x312f2a1342ba3853:0x4692c76a1775a5f2",
        "lat": 19.895385599999997,
        "lng": 102.1416538,
        "_id": 266,
        "google_place_id": "ChIJUzi6QhMqLzER8qV1F2rHkkY"
    },
    {
        "title": "Wat Xiengthong",
        "note": "",
        "url": "https://www.google.com/maps/place/Wat+Xiengthong/data=!4m2!3m1!1s0x312f2a12ffc51c6b:0x1c5835a5bac7c503",
        "lat": 19.8975293,
        "lng": 102.14315719999999,
        "_id": 267,
        "google_place_id": "ChIJaxzF_xIqLzERA8XHuqU1WBw"
    },
    {
        "title": "Carpe Diem",
        "note": "",
        "url": "https://www.google.com/maps/place/Carpe+Diem/data=!4m2!3m1!1s0x3128d216ba9c50dd:0x5608ff8527e5e83e",
        "lat": 34.0319068,
        "lng": -118.12926279999999,
        "_id": 268,
        "google_place_id": "ChIJpz220cPPwoAR2bVktccVlAk"
    },
    {
        "title": "Phousi Hill",
        "note": "",
        "url": "https://www.google.com/maps/place/Phousi+Hill/data=!4m2!3m1!1s0x312f2a6a667fef0b:0xfd9af2125d7a76fc",
        "lat": 19.8901716,
        "lng": 102.1370555,
        "_id": 269,
        "google_place_id": "ChIJC-9_ZmoqLzER_HZ6XRLymv0"
    },
    {
        "title": "Tamarind",
        "note": "tasting platter, barbecued marinated buffalo",
        "url": "https://www.google.com/maps/place/Tamarind/data=!4m2!3m1!1s0x312f2a46a3275ae9:0x91b92a2b2bcb8bf5",
        "lat": 34.0352287,
        "lng": -118.2649505,
        "_id": 270,
        "google_place_id": "ChIJVVWlj8XHwoARYJTF7N9qn2A"
    },
    {
        "title": "Icon Klub",
        "note": "cocktail bar",
        "url": "https://www.google.com/maps/place/Icon+Klub/data=!4m2!3m1!1s0x312f2a6b3e6dc5b3:0xb756bd26e659d573",
        "lat": 19.892978199999998,
        "lng": 102.13899339999999,
        "_id": 271,
        "google_place_id": "ChIJs8VtPmsqLzERc9VZ5ia9Vrc"
    },
    {
        "title": "Redbul Sport bar",
        "note": "LGBT, happy hour",
        "url": "https://www.google.com/maps/place/Redbul+Sport+bar/data=!4m2!3m1!1s0x312f2a6a9ae222b7:0x637dd386fd10cdec",
        "lat": 34.025583,
        "lng": -118.2773206,
        "_id": 272,
        "google_place_id": "ChIJawC-cufHwoAREP1nD97S9ys"
    },
    {
        "title": "Dyen Sabai Restaurant",
        "note": "order platter, Mok Pa, Or Lam",
        "url": "https://www.google.com/maps/place/Dyen+Sabai+Restaurant/data=!4m2!3m1!1s0x312f2a6b2cee775b:0x16084a9d928451d4",
        "lat": 19.8924091,
        "lng": 102.14076039999999,
        "_id": 273,
        "google_place_id": "ChIJW3fuLGsqLzER1FGEkp1KCBY"
    },
    {
        "title": "Big Tree Cafe",
        "note": "Lao omelet, Yum Salat",
        "url": "https://www.google.com/maps/place/Big+Tree+Cafe/data=!4m2!3m1!1s0x312f2a6c8255c9ff:0xc8871d6175ebabda",
        "lat": 28.4364957,
        "lng": 77.13233439999999,
        "_id": 274,
        "google_place_id": "ChIJl_cDBvUZDTkRMuZdb5KB0lg"
    },
    {
        "title": "Tim Papaya Salad Restaurant",
        "note": "",
        "url": "https://www.google.com/maps/place/Tim+Papaya+Salad+Restaurant/data=!4m2!3m1!1s0x312f2a6cb1d964cf:0x819bf7f14e544823",
        "lat": 19.895499299999997,
        "lng": 102.1399266,
        "_id": 275,
        "google_place_id": "ChIJz2TZsWwqLzERI0hUTvH3m4E"
    },
    {
        "title": "Night Market",
        "note": "",
        "url": "https://www.google.com/maps/place/Night+Market/data=!4m2!3m1!1s0x312f2a6b010a5541:0x6814a3460ad3cd10",
        "lat": 34.038643199999996,
        "lng": -118.2587591,
        "_id": 276,
        "google_place_id": "ChIJ91dj8CbJwoARjfu-MWrjtes"
    },
    {
        "title": "Khao Soi Noodle Shop",
        "note": "get here early",
        "url": "https://www.google.com/maps/place/Khao+Soi+Noodle+Shop/data=!4m2!3m1!1s0x312f2a135d07c9e3:0x544ed385e246b57c",
        "lat": 34.0978315,
        "lng": -118.31836739999999,
        "_id": 277,
        "google_place_id": "ChIJ92lOKka_woAR4rx2fnKC2Tw"
    },
    {
        "title": "Luang prabang Sunrise Riverside Pool Hostel",
        "note": "social hostel",
        "url": "https://www.google.com/maps/place/Luang+prabang+Sunrise+Riverside+Pool+Hostel/data=!4m2!3m1!1s0x312f2b9acf7eda69:0xc1c7bbb4069ce8b3",
        "lat": 19.888773,
        "lng": 102.139117,
        "_id": 278,
        "google_place_id": "ChIJadp-z5orLzERs-icBrS7x8E"
    },
    {
        "title": "Le Calao restaurant",
        "note": "",
        "url": "https://www.google.com/maps/place/Le+Calao+restaurant/data=!4m2!3m1!1s0x312f2a133b30cb05:0xe48ab138b480994f",
        "lat": 19.8968187,
        "lng": 102.1413299,
        "_id": 279,
        "google_place_id": "ChIJBcswOxMqLzERT5mAtDixiuQ"
    },
    {
        "title": "Siridel Luang Prabang",
        "note": "",
        "url": "https://www.google.com/maps/place/Siridel+Luang+Prabang/data=!4m2!3m1!1s0x312f2b7e1b42658b:0x30615d699f760ecc",
        "lat": 19.889014,
        "lng": 102.13222979999999,
        "_id": 280,
        "google_place_id": "ChIJi2VCG34rLzERzA52n2ldYTA"
    },
    {
        "title": "Anousay Motorbike Rental",
        "note": "manual motorbikes",
        "url": "https://www.google.com/maps/place/Anousay+Motorbike+Rental/data=!4m2!3m1!1s0x312f2beaade6e61d:0x38f05c21d5f82b97",
        "lat": 19.888698599999998,
        "lng": 102.1380331,
        "_id": 281,
        "google_place_id": "ChIJHebmreorLzERlyv41SFc8Dg"
    },
    {
        "title": "Mekong Delight NUT POB",
        "note": "Bourdain went here in Parts Unknown",
        "url": "https://www.google.com/maps/place/Mekong+Delight+NUT+POB/data=!4m2!3m1!1s0x312f2bc1443f7ca5:0xd35ec25dcb95310e",
        "lat": 19.8965837,
        "lng": 102.1401071,
        "_id": 282,
        "google_place_id": "ChIJpXw_RMErLzERDjGVy13CXtM"
    },
    {
        "title": "Pak Ou Caves",
        "note": "",
        "url": "https://www.google.com/maps/place/Pak+Ou+Caves/data=!4m2!3m1!1s0x312ed1ab109c9ce5:0x106ae12237eb91fa",
        "lat": 20.0485582,
        "lng": 102.2113255,
        "_id": 283,
        "google_place_id": "ChIJ5ZycEKvRLjER-pHrNyLhahA"
    },
    {
        "title": "Tat Kuang Si Bear Rescue Centre, Free the Bears",
        "note": "",
        "url": "https://www.google.com/maps/place/Tat+Kuang+Si+Bear+Rescue+Centre,+Free+the+Bears/data=!4m2!3m1!1s0x3128d2113e50eb8b:0x72f89eeab58835d6",
        "lat": 19.7510022,
        "lng": 101.995943,
        "_id": 284,
        "google_place_id": "ChIJi-tQPhHSKDER1jWIteqe-HI"
    },
    {
        "title": "Tat Sae Waterfalls",
        "note": "",
        "url": "https://www.google.com/maps/place/Tat+Sae+Waterfalls/data=!4m2!3m1!1s0x312f28e5f33ebef7:0x54c2c28b738896bc",
        "lat": 19.8437755,
        "lng": 102.2199984,
        "_id": 285,
        "google_place_id": "ChIJ974-8-UoLzERvJaIc4vCwlQ"
    },
    {
        "title": "Big Brother Mouse",
        "note": "",
        "url": "https://www.google.com/maps/place/Big+Brother+Mouse/data=!4m2!3m1!1s0x312f2a135153760f:0x5f17261c1396326b",
        "lat": 19.8950201,
        "lng": 102.14068209999999,
        "_id": 286,
        "google_place_id": "ChIJD3ZTURMqLzERazKWExwmF18"
    },
    {
        "title": "Kuang Si Waterfall",
        "note": "",
        "url": "https://www.google.com/maps/place/Kuang+Si+Waterfall/data=!4m2!3m1!1s0x3128d216c82caa13:0xe1f331979b7f211f",
        "lat": 19.749572999999998,
        "lng": 101.99318389999999,
        "_id": 287,
        "google_place_id": "ChIJE6osyBbSKDERHyF_m5cx8-E"
    },
    {
        "title": "Laos Buffalo Dairy",
        "note": "",
        "url": "https://www.google.com/maps/place/Laos+Buffalo+Dairy/data=!4m2!3m1!1s0x3128d3d0b281c70d:0x6d6f477541d021f3",
        "lat": 19.793293,
        "lng": 101.98648899999999,
        "_id": 288,
        "google_place_id": "ChIJDceBstDTKDER8yHQQXVHb20"
    },
    {
        "title": "Trinity Alps",
        "note": "",
        "url": "https://www.google.com/maps/place/Trinity+Alps/data=!4m2!3m1!1s0x54d23b46bdae16ef:0xbe582398cdcb84f7",
        "lat": 41.000417999999996,
        "lng": -123.04836829999998,
        "_id": 289,
        "google_place_id": "ChIJ7xauvUY70lQR94TLzZgjWL4"
    },
    {
        "title": "Burney Falls",
        "note": "",
        "url": "https://www.google.com/maps/place/Burney+Falls/data=!4m2!3m1!1s0x54cda79191802799:0x605002b233078792",
        "lat": 41.012057999999996,
        "lng": -121.65177959999998,
        "_id": 290,
        "google_place_id": "ChIJmSeAkZGnzVQRkocHM7ICUGA"
    },
    {
        "title": "Humboldt Redwoods State Park",
        "note": "",
        "url": "https://www.google.com/maps/place/Humboldt+Redwoods+State+Park/data=!4m2!3m1!1s0x54d463c73284e3b3:0x3716989f535a3fa",
        "lat": 40.3146515,
        "lng": -123.97768579999999,
        "_id": 291,
        "google_place_id": "ChIJs-OEMsdj1FQR-qM19YlpcQM"
    },
    {
        "title": "Redwood National and State Parks",
        "note": "",
        "url": "https://www.google.com/maps/place/Redwood+National+and+State+Parks/data=!4m2!3m1!1s0x54d06636f5417fa5:0x36cf3266953b5f8e",
        "lat": 41.401715599999996,
        "lng": -124.04171099999999,
        "_id": 292,
        "google_place_id": "ChIJpX9B9TZm0FQRjl87lWYyzzY"
    },